timestamp,TimeUS,DesRoll,Roll,DesPitch,Pitch,DesYaw,Yaw,ErrRP,ErrYaw,AEKF
1659371464.05982900,10628713,0.0,1.0,0.0,0.48,359.99,0.0,1.0,1.0,0
1659371464.15939713,10728281,0.0,1.31,0.0,-0.17,242.24,242.25,1.0,0.8,0
1659371464.25939417,10828278,0.0,1.28,0.0,-0.1,242.25,242.26,0.64,0.64,0
1659371464.35927820,10928162,0.0,1.24,0.0,0.01,242.16,242.17000000000002,0.64,0.51,0
1659371464.45931220,11028196,0.0,1.2,0.0,0.1,241.98000000000002,241.99,0.41000000000000003,0.42,0
1659371464.55930519,11128189,0.0,1.17,0.0,0.19,242.08,242.09,0.41000000000000003,0.34,0
1659371464.65935516,11228239,0.0,1.1400000000000001,0.0,0.25,242.01,242.02,0.26,0.27,0
1659371464.75941515,11328299,0.0,1.12,0.0,0.31,241.94,241.95000000000002,0.26,0.22,0
1659371464.85933399,11428218,0.0,1.11,0.0,0.35000000000000003,242.01,242.02,0.21,0.18,0
1659371464.95984507,11528729,0.0,1.09,0.0,0.39,242.05,242.06,0.21,0.14,0
1659371465.05952120,11628405,0.0,1.08,0.0,0.43,241.89000000000001,241.9,0.13,0.12,0
1659371465.15960622,11728490,0.0,1.08,0.0,0.45,241.87,241.88,0.13,0.1,0
1659371465.25954413,11828428,0.0,1.07,0.0,0.47000000000000003,241.82,241.83,0.11,0.08,0
1659371465.35946417,11928348,0.0,1.06,0.0,0.48,241.64000000000001,241.65,0.11,0.07,0
1659371465.45946908,12028353,0.0,1.06,0.0,0.49,241.61,241.62,0.08,0.06,0
1659371465.55946922,12128353,0.0,1.05,0.0,0.5,241.58,241.59,0.08,0.04,0
1659371465.65946817,12228352,0.0,1.05,0.0,0.5,241.64000000000001,241.65,0.07,0.04,0
1659371465.75947714,12328361,0.0,1.04,0.0,0.51,241.66,241.67000000000002,0.07,0.03,0
1659371465.85953903,12428423,0.0,1.04,0.0,0.52,241.67000000000002,241.68,0.05,0.02,0
1659371465.96024013,12529124,0.0,1.01,0.0,0.56,359.98,0.0,0.05,0.02,3
1659371466.05983615,12628720,0.0,1.01,0.0,0.56,359.98,0.0,0.03,0.02,3
1659371466.15992117,12728805,0.0,1.01,0.0,0.56,359.98,0.0,0.03,0.02,3
1659371466.25983310,12828717,0.0,1.01,0.0,0.56,359.99,0.0,0.02,0.02,3
1659371466.35992408,12928808,0.0,1.01,0.0,0.56,359.99,0.0,0.02,0.01,3
1659371466.45985103,13028735,0.0,1.01,0.0,0.56,359.99,0.0,0.01,0.01,3
1659371466.55992699,13128811,0.0,1.01,0.0,0.56,359.99,0.0,0.01,0.01,3
1659371466.65986705,13228751,0.0,1.01,0.0,0.55,359.99,0.0,0.01,0.01,3
1659371466.75985503,13328739,0.0,1.01,0.0,0.55,359.99,0.0,0.01,0.01,3
1659371466.85989308,13428777,0.0,1.01,0.0,0.55,359.99,0.0,0.01,0.01,3
1659371466.96031213,13529196,0.0,1.01,0.0,0.55,359.99,0.0,0.01,0.01,3
1659371467.05988216,13628766,0.0,1.01,0.0,0.55,359.99,0.0,0.0,0.01,3
1659371467.15991616,13728800,0.0,1.01,0.0,0.55,359.99,0.0,0.0,0.01,3
1659371467.25989199,13828776,0.0,1.01,0.0,0.55,359.98,0.0,0.0,0.01,3
1659371467.35979915,13928683,0.0,1.01,0.0,0.55,359.98,0.0,0.0,0.01,3
1659371467.45991302,14028797,0.0,1.01,0.0,0.54,359.98,0.0,0.0,0.01,3
1659371467.55991316,14128797,0.0,1.01,0.0,0.54,359.98,0.0,0.0,0.01,3
1659371467.65987515,14228759,0.0,1.01,0.0,0.54,359.98,0.0,0.0,0.01,3
1659371467.75982213,14328706,0.0,1.02,0.0,0.53,240.29,240.32,0.0,0.01,3
1659371467.85996318,14428847,0.0,1.02,0.0,0.53,240.31,240.33,0.0,0.01,3
1659371467.96024609,14529130,0.0,1.02,0.0,0.53,240.32,240.34,0.0,0.01,3
1659371468.05991507,14628799,0.0,1.02,0.0,0.53,240.35,240.37,0.0,0.01,3
1659371468.15995216,14728836,0.0,1.02,0.0,0.52,240.4,240.43,0.0,0.01,3
1659371468.25990701,14828791,0.0,1.02,0.0,0.52,240.48000000000002,240.5,0.0,0.01,3
1659371468.35990620,14928790,0.0,1.02,0.0,0.52,240.59,240.61,0.0,0.02,3
1659371468.45985508,15028739,0.0,1.02,0.0,0.52,240.76,240.79,0.0,0.02,3
1659371468.55985808,15128742,0.0,1.03,0.0,0.52,240.99,241.01,0.0,0.02,3
1659371468.65991211,15228796,0.0,1.03,0.0,0.51,241.18,241.20000000000002,0.0,0.02,3
1659371468.75992608,15328810,0.0,1.03,0.0,0.51,241.29,241.31,0.0,0.02,3
1659371468.85991406,15428798,0.0,1.04,0.0,0.51,241.31,241.34,0.0,0.01,3
1659371468.96015620,15529040,0.0,1.03,0.0,0.51,241.3,241.33,0.0,0.01,3
1659371469.05992007,15628804,0.0,1.03,0.0,0.51,241.29,241.31,0.0,0.01,3
1659371469.15993118,15728815,0.0,1.03,0.0,0.51,241.27,241.29,0.0,0.01,3
1659371469.25984311,15828727,0.0,1.03,0.0,0.51,241.26,241.29,0.0,0.01,3
1659371469.35992408,15928808,0.0,1.03,0.0,0.51,241.27,241.29,0.0,0.01,3
1659371469.45992017,16028804,0.0,1.03,0.0,0.52,241.28,241.3,0.0,0.01,3
1659371469.55984521,16128729,0.0,1.03,0.0,0.52,241.29,241.31,0.0,0.01,3
1659371469.65992403,16228808,0.0,1.03,0.0,0.52,241.28,241.31,0.0,0.01,3
1659371469.75989318,16328777,0.0,1.03,0.0,0.52,241.29,241.32,0.0,0.01,3
1659371469.85987306,16428757,0.0,1.03,0.0,0.52,241.33,241.35,0.0,0.01,3
1659371469.96017718,16529061,0.0,1.03,0.0,0.52,241.39000000000001,241.41,0.0,0.01,3
1659371470.05989003,16628774,0.0,1.03,0.0,0.53,241.46,241.48000000000002,0.0,0.01,3
1659371470.15997601,16728860,0.0,1.03,0.0,0.53,241.54,241.56,0.0,0.01,3
1659371470.25985909,16828743,0.0,1.03,0.0,0.53,241.61,241.63,0.0,0.01,3
1659371470.35989022,16928774,0.0,1.03,0.0,0.53,241.67000000000002,241.69,0.0,0.01,3
1659371470.45987415,17028758,0.0,1.02,0.0,0.53,241.73000000000002,241.75,0.0,0.01,3
1659371470.55998111,17128865,0.0,1.03,0.0,0.54,241.78,241.81,0.0,0.01,3
1659371470.65988016,17228764,0.0,1.03,0.0,0.53,241.83,241.85,0.0,0.01,3
1659371470.75994015,17328824,0.0,1.03,0.0,0.53,241.85,241.87,0.0,0.01,3
1659371470.85988712,17428771,0.0,1.03,0.0,0.53,241.87,241.89000000000001,0.0,0.01,3
1659371470.96023607,17529120,0.0,1.02,0.0,0.53,241.87,241.89000000000001,0.0,0.02,3
1659371471.05984902,17628733,0.0,1.02,0.0,0.53,241.85,241.87,0.0,0.01,3
1659371471.15992403,17728808,0.0,1.02,0.0,0.53,241.81,241.83,0.0,0.01,3
1659371471.25987911,17828763,0.0,1.02,0.0,0.53,241.77,241.79,0.0,0.01,3
1659371471.35987806,17928762,0.0,1.02,0.0,0.53,241.74,241.76,0.0,0.01,3
1659371471.45996404,18028848,0.0,1.02,0.0,0.54,241.74,241.76,0.0,0.01,3
1659371471.55986500,18128749,0.0,1.02,0.0,0.53,241.74,241.76,0.0,0.01,3
1659371471.65985703,18228741,0.0,1.02,0.0,0.53,241.76,241.78,0.0,0.01,3
1659371471.75989604,18328780,0.0,1.02,0.0,0.54,241.79,241.81,0.0,0.01,3
1659371471.85985112,18428735,0.0,1.02,0.0,0.53,241.83,241.86,0.0,0.01,3
1659371471.96019220,18529076,0.0,1.02,0.0,0.53,241.87,241.9,0.0,0.01,3
1659371472.05989218,18628776,0.0,1.02,0.0,0.53,241.9,241.92000000000002,0.0,0.01,3
1659371472.15992904,18728813,0.0,1.02,0.0,0.53,241.91,241.93,0.0,0.0,3
1659371472.25996017,18828844,0.0,1.02,0.0,0.53,241.92000000000002,241.94,0.0,0.01,3
1659371472.35990000,18928784,0.0,1.02,0.0,0.53,241.92000000000002,241.94,0.0,0.01,3
1659371472.45988321,19028767,0.0,1.02,0.0,0.53,241.91,241.93,0.0,0.01,3
1659371472.55991101,19128795,0.0,1.02,0.0,0.53,241.89000000000001,241.91,0.0,0.0,3
1659371472.65990710,19228791,0.0,1.02,0.0,0.53,241.87,241.89000000000001,0.0,0.0,3
1659371472.75989008,19328774,0.0,1.02,0.0,0.53,241.85,241.88,0.0,0.01,3
1659371472.85992908,19428813,0.0,1.02,0.0,0.54,241.84,241.86,0.0,0.0,3
1659371472.96028519,19529169,0.0,1.02,0.0,0.54,241.81,241.83,0.0,0.01,3
1659371473.05986619,19628750,0.0,1.02,0.0,0.54,241.79,241.82,0.0,0.0,3
1659371473.15984702,19728731,0.0,1.02,0.0,0.54,241.79,241.81,0.0,0.0,3
1659371473.25988221,19828766,0.0,1.02,0.0,0.54,241.79,241.81,0.0,0.0,3
1659371473.35982704,19928711,0.0,1.02,0.0,0.54,241.79,241.82,0.0,0.0,3
1659371473.45985222,20028736,0.0,1.02,0.0,0.54,241.81,241.83,0.0,0.0,3
1659371473.55978203,20128666,0.0,1.02,0.0,0.54,241.83,241.85,0.0,0.0,3
1659371473.65990400,20228788,0.0,1.02,0.0,0.54,241.84,241.86,0.0,0.01,3
1659371473.75986409,20328748,0.0,1.02,0.0,0.54,241.86,241.89000000000001,0.0,0.01,3
1659371473.85985112,20428735,0.0,1.02,0.0,0.53,241.9,241.92000000000002,0.0,0.01,3
1659371473.96019912,20529083,0.0,1.02,0.0,0.55,241.94,241.96,0.0,0.01,3
1659371474.05990601,20628790,0.0,1.01,0.0,0.54,241.98000000000002,242.0,0.0,0.01,3
1659371474.15994620,20728830,0.0,1.03,0.0,0.54,241.93,241.95000000000002,0.0,0.01,3
1659371474.25985217,20828736,0.0,1.01,0.0,0.54,242.0,242.02,0.0,0.0,3
1659371474.35985804,20928742,0.0,1.03,0.0,0.55,241.97,241.99,0.0,0.0,3
1659371474.45987201,21028756,0.0,1.02,0.0,0.54,241.96,241.99,0.0,0.01,3
1659371474.55991006,21128794,0.0,1.02,0.0,0.56,241.97,241.99,0.0,0.01,3
1659371474.65993404,21228818,0.0,1.03,0.0,0.55,241.93,241.96,0.0,0.01,3
1659371474.75986814,21328752,0.0,1.03,0.0,0.54,241.88,241.9,0.0,0.01,3
1659371474.85985208,21428736,0.0,1.03,0.0,0.55,241.88,241.9,0.0,0.01,3
1659371474.96022415,21529108,0.0,1.02,0.0,0.54,241.87,241.89000000000001,0.0,0.01,3
1659371475.05989408,21628778,0.0,1.03,0.0,0.55,241.84,241.86,0.0,0.01,3
1659371475.15988708,21728771,0.0,1.02,0.0,0.55,241.89000000000001,241.91,0.0,0.01,3
1659371475.25991201,21828796,0.0,1.03,0.0,0.55,241.87,241.89000000000001,0.0,0.01,3
1659371475.35982704,21928711,0.0,1.03,0.0,0.55,241.85,241.87,0.0,0.01,3
1659371475.45985007,22028734,0.0,1.02,0.0,0.55,241.87,241.9,0.0,0.01,3
1659371475.55987501,22128759,0.0,1.03,0.0,0.55,241.85,241.87,0.0,0.01,3
1659371475.65993619,22228820,0.0,1.02,0.0,0.55,241.86,241.88,0.0,0.0,3
1659371475.75985813,22328742,0.0,1.03,0.0,0.55,241.86,241.89000000000001,0.0,0.0,3
1659371475.85992503,22428809,0.0,1.03,0.0,0.55,241.86,241.88,0.0,0.0,3
1659371475.96028399,22529168,0.0,1.02,0.0,0.55,241.87,241.89000000000001,0.0,0.01,3
1659371476.05996799,22628852,0.0,1.03,0.0,0.55,241.88,241.91,0.0,0.01,3
1659371476.15992117,22728805,0.0,1.02,0.0,0.55,241.91,241.93,0.0,0.01,3
1659371476.25989509,22828779,0.0,1.03,0.0,0.55,241.94,241.96,0.0,0.01,3
1659371476.35985017,22928734,0.0,1.03,0.0,0.55,241.95000000000002,241.98000000000002,0.0,0.01,3
1659371476.45990205,23028786,0.0,1.02,0.0,0.55,241.96,241.98000000000002,0.0,0.0,3
1659371476.55984807,23128732,0.0,1.03,0.0,0.55,241.96,241.98000000000002,0.0,0.0,3
1659371476.65988111,23228765,0.0,1.03,0.0,0.54,241.96,241.99,0.0,0.0,3
1659371476.75990701,23328791,0.0,1.03,0.0,0.55,241.96,241.98000000000002,0.0,0.01,3
1659371476.85997915,23428863,0.0,1.03,0.0,0.55,241.94,241.96,0.0,0.01,3
1659371476.96015501,23529039,0.0,1.03,0.0,0.55,241.91,241.93,0.0,0.01,3
1659371477.05992699,23628811,0.0,1.03,0.0,0.55,241.87,241.89000000000001,0.0,0.01,3
1659371477.15994310,23728827,0.0,1.03,0.0,0.55,241.82,241.84,0.0,0.01,3
1659371477.25991821,23828802,0.0,1.04,0.0,0.55,241.77,241.79,0.0,0.01,3
1659371477.35984612,23928730,0.0,1.04,0.0,0.55,241.72,241.74,0.0,0.01,3
1659371477.45986819,24028752,0.0,1.04,0.0,0.55,241.68,241.71,0.0,0.0,3
1659371477.55990005,24128784,0.0,1.04,0.0,0.55,241.66,241.68,0.0,0.0,3
1659371477.65983510,24228719,0.0,1.04,0.0,0.55,241.64000000000001,241.66,0.0,0.0,3
1659371477.75993013,24328814,0.0,1.04,0.0,0.55,241.63,241.65,0.0,0.01,3
1659371477.85988402,24428768,0.0,1.04,0.0,0.55,241.6,241.62,0.0,0.01,3
1659371477.96018720,24529071,0.0,1.04,0.0,0.55,241.56,241.59,0.0,0.01,3
1659371478.05985713,24628741,0.0,1.04,0.0,0.55,241.52,241.55,0.0,0.01,3
1659371478.15989208,24728776,0.0,1.04,0.0,0.55,241.48000000000002,241.5,0.0,0.01,3
1659371478.25979614,24828680,0.0,1.04,0.0,0.55,241.44,241.46,0.0,0.01,3
1659371478.35988903,24928773,0.0,1.04,0.0,0.55,241.41,241.43,0.0,0.01,3
1659371478.45986319,25028747,0.0,1.04,0.0,0.55,241.38,241.41,0.0,0.01,3
1659371478.55996799,25128852,0.0,1.04,0.0,0.55,241.36,241.39000000000001,0.0,0.0,3
1659371478.65993810,25228822,0.0,1.04,0.0,0.55,241.35,241.37,0.0,0.0,3
1659371478.75991416,25328798,0.0,1.04,0.0,0.55,241.34,241.36,0.0,0.01,3
1659371478.85984111,25428725,0.0,1.04,0.0,0.55,241.32,241.34,0.0,0.0,3
1659371478.96034122,25529225,0.0,1.04,0.0,0.54,241.3,241.32,0.0,0.01,3
1659371479.05990815,25628792,0.0,1.04,0.0,0.55,241.28,241.3,0.0,0.02,3
1659371479.15994906,25728833,0.0,1.04,0.0,0.55,241.28,241.3,0.0,0.02,3
1659371479.25991416,25828798,0.0,1.04,0.0,0.55,241.29,241.31,0.0,0.01,3
1659371479.35986400,25928748,0.0,1.04,0.0,0.55,241.31,241.33,0.0,0.01,3
1659371479.45985222,26028736,0.0,1.04,0.0,0.55,241.32,241.34,0.0,0.01,3
1659371479.55995607,26128840,0.0,1.04,0.0,0.55,241.34,241.36,0.0,0.01,3
1659371479.65986919,26228753,0.0,1.04,0.0,0.55,241.35,241.37,0.0,0.01,3
1659371479.75988221,26328766,0.0,1.04,0.0,0.55,241.35,241.37,0.0,0.01,3
1659371479.85989809,26428782,0.0,1.04,0.0,0.55,241.34,241.37,0.0,0.01,3
1659371479.96022701,26529111,0.0,1.04,0.0,0.56,241.34,241.36,0.0,0.01,3
1659371480.05980515,26628689,0.0,1.04,0.0,0.55,241.34,241.36,0.0,0.01,3
1659371480.15987611,26728760,0.0,1.04,0.0,0.55,241.34,241.36,0.0,0.01,3
1659371480.25990319,26828787,0.0,1.04,0.0,0.55,241.34,241.37,0.0,0.01,3
1659371480.35984802,26928732,0.0,1.04,0.0,0.55,241.36,241.38,0.0,0.01,3
1659371480.45995402,27028838,0.0,1.03,0.0,0.56,241.37,241.39000000000001,0.0,0.01,3
1659371480.55984211,27128726,0.0,1.03,0.0,0.56,241.39000000000001,241.41,0.0,0.01,3
1659371480.65992904,27228813,0.0,1.03,0.0,0.56,241.41,241.43,0.0,0.01,3
1659371480.75986910,27328753,0.0,1.03,0.0,0.56,241.42000000000002,241.44,0.0,0.01,3
1659371480.85990310,27428787,0.0,1.03,0.0,0.56,241.42000000000002,241.44,0.0,0.01,3
1659371480.96019101,27529075,0.0,1.04,0.0,0.56,241.41,241.43,0.0,0.01,3
1659371481.05988312,27628767,0.0,1.03,0.0,0.56,241.4,241.42000000000002,0.0,0.01,3
1659371481.15986204,27728746,0.0,1.04,0.0,0.56,241.38,241.4,0.0,0.01,3
1659371481.25991917,27828803,0.0,1.03,0.0,0.56,241.37,241.39000000000001,0.0,0.01,3
1659371481.35992002,27928804,0.0,1.04,0.0,0.56,241.36,241.38,0.0,0.01,3
1659371481.45992208,28028806,0.0,1.03,0.0,0.55,241.34,241.37,0.0,0.01,3
1659371481.55986404,28128748,0.0,1.04,0.0,0.56,241.34,241.36,0.0,0.0,3
1659371481.65983200,28228716,0.0,1.03,0.0,0.55,241.33,241.36,0.0,0.0,3
1659371481.75990105,28328785,0.0,1.04,0.0,0.56,241.33,241.35,0.0,0.0,3
1659371481.85988712,28428771,0.0,1.03,0.0,0.56,241.33,241.35,0.0,0.01,3
1659371481.96022010,28529104,0.0,1.04,0.0,0.56,241.32,241.34,0.0,0.0,3
1659371482.05986404,28628748,0.0,1.03,0.0,0.56,241.32,241.34,0.0,0.0,3
1659371482.15989017,28728774,0.0,1.03,0.0,0.56,241.31,241.33,0.0,0.01,3
1659371482.25997114,28828855,0.0,1.03,0.0,0.56,241.31,241.33,0.0,0.01,3
1659371482.35989714,28928781,0.0,1.03,0.0,0.56,241.32,241.34,0.0,0.01,3
1659371482.45989919,29028783,0.0,1.03,0.0,0.56,241.33,241.35,0.0,0.0,3
1659371482.55985808,29128742,0.0,1.03,0.0,0.56,241.34,241.36,0.0,0.0,3
1659371482.65986800,29228752,0.0,1.03,0.0,0.56,241.35,241.37,0.0,0.0,3
1659371482.75988102,29328765,0.0,1.03,0.0,0.56,241.36,241.38,0.0,0.0,3
1659371482.85984707,29428731,0.0,1.03,0.0,0.56,241.36,241.38,0.0,0.0,3
1659371482.96016622,29529050,0.0,1.03,0.0,0.56,241.37,241.39000000000001,0.0,0.0,3
1659371483.05990505,29628789,0.0,1.03,0.0,0.5700000000000001,241.38,241.4,0.0,0.0,3
1659371483.15999413,29728878,0.0,1.04,0.0,0.5700000000000001,241.4,241.42000000000002,0.0,0.0,3
1659371483.25986409,29828748,0.0,1.03,0.0,0.5700000000000001,241.41,241.43,0.0,0.0,3
1659371483.35995007,29928834,0.0,1.03,0.0,0.5700000000000001,241.42000000000002,241.44,0.0,0.01,3
1659371483.45991707,30028801,0.0,1.03,0.0,0.5700000000000001,241.42000000000002,241.44,0.0,0.01,3
1659371483.55984402,30128728,0.0,1.03,0.0,0.5700000000000001,241.41,241.43,0.0,0.01,3
1659371483.65986609,30228750,0.0,1.03,0.0,0.5700000000000001,241.4,241.42000000000002,0.0,0.01,3
1659371483.75988317,30328767,0.0,1.03,0.0,0.5700000000000001,241.39000000000001,241.41,0.0,0.01,3
1659371483.85989904,30428783,0.0,1.03,0.0,0.5700000000000001,241.39000000000001,241.41,0.0,0.01,3
1659371483.96028614,30529170,0.0,1.03,0.0,0.5700000000000001,241.4,241.42000000000002,0.0,0.01,3
1659371484.05991602,30628800,0.0,1.03,0.0,0.5700000000000001,241.42000000000002,241.44,0.0,0.01,3
1659371484.15985417,30728738,0.0,1.03,0.0,0.5700000000000001,241.43,241.45000000000002,0.0,0.01,3
1659371484.25989509,30828779,0.0,1.03,0.0,0.5700000000000001,241.45000000000002,241.47,0.0,0.01,3
1659371484.35990500,30928789,0.0,1.03,0.0,0.5700000000000001,241.46,241.48000000000002,0.0,0.0,3
1659371484.45988512,31028769,0.0,1.03,0.0,0.5700000000000001,241.48000000000002,241.5,0.0,0.0,3
1659371484.55989504,31128779,0.0,1.03,0.0,0.5700000000000001,241.49,241.51,0.0,0.01,3
1659371484.65991521,31228799,0.0,1.03,0.0,0.5700000000000001,241.49,241.52,0.0,0.01,3
1659371484.75984311,31328727,0.0,1.03,0.0,0.5700000000000001,241.49,241.51,0.0,0.01,3
1659371484.85990810,31428792,0.0,1.03,0.0,0.5700000000000001,241.47,241.5,0.0,0.01,3
1659371484.96025109,31529135,0.0,1.03,0.0,0.5700000000000001,241.46,241.48000000000002,0.0,0.01,3
1659371485.05985308,31628737,0.0,1.03,0.0,0.5700000000000001,241.45000000000002,241.47,0.0,0.01,3
1659371485.15982413,31728708,0.0,1.03,0.0,0.5700000000000001,241.44,241.46,0.0,0.01,3
1659371485.25989103,31828775,0.0,1.03,0.0,0.5700000000000001,241.44,241.46,0.0,0.01,3
1659371485.35987902,31928763,0.0,1.03,0.0,0.5700000000000001,241.44,241.47,0.0,0.01,3
1659371485.45989108,32028775,0.0,1.03,0.0,0.5700000000000001,241.45000000000002,241.47,0.0,0.01,3
1659371485.55989599,32128780,0.0,1.04,0.0,0.5700000000000001,241.46,241.48000000000002,0.0,0.01,3
1659371485.65982699,32228711,0.0,1.03,0.0,0.5700000000000001,241.45000000000002,241.48000000000002,0.0,0.01,3
1659371485.75985599,32328740,0.0,1.04,0.0,0.5700000000000001,241.45000000000002,241.47,0.0,0.01,3
1659371485.85990500,32428789,0.0,1.03,0.0,0.5700000000000001,241.44,241.46,0.0,0.01,3
1659371485.96012712,32529011,0.0,1.03,0.0,0.5700000000000001,241.43,241.45000000000002,0.0,0.01,3
1659371486.05978608,32628670,0.0,1.03,0.0,0.5700000000000001,241.42000000000002,241.44,0.0,0.01,3
1659371486.15989518,32728779,0.0,1.03,0.0,0.5700000000000001,241.43,241.45000000000002,0.0,0.01,3
1659371486.25992799,32828812,0.0,1.03,0.0,0.5700000000000001,241.44,241.46,0.0,0.01,3
1659371486.35985303,32928737,0.0,1.03,0.0,0.5700000000000001,241.45000000000002,241.47,0.0,0.01,3
1659371486.45988512,33028769,0.0,1.03,0.0,0.5700000000000001,241.46,241.48000000000002,0.0,0.01,3
1659371486.55990601,33128790,0.0,1.03,0.0,0.5700000000000001,241.47,241.49,0.0,0.01,3
1659371486.65982103,33228705,0.0,1.03,0.0,0.5700000000000001,241.47,241.49,0.0,0.01,3
1659371486.75996900,33328853,0.0,1.03,0.0,0.5700000000000001,241.47,241.5,0.0,0.01,3
1659371486.85985017,33428734,0.0,1.03,0.0,0.5700000000000001,241.48000000000002,241.5,0.0,0.01,3
1659371486.96027803,33529162,0.0,1.03,0.0,0.5700000000000001,241.48000000000002,241.5,0.0,0.01,3
1659371487.05990100,33628785,0.0,1.03,0.0,0.58,241.49,241.51,0.0,0.01,3
1659371487.15986300,33728747,0.0,1.03,0.0,0.5700000000000001,241.49,241.51,0.0,0.01,3
1659371487.25993800,33828822,0.0,1.03,0.0,0.58,241.5,241.52,0.0,0.01,3
1659371487.35986519,33928749,0.0,1.03,0.0,0.58,241.51,241.54,0.0,0.01,3
1659371487.45988202,34028766,0.0,1.03,0.0,0.5700000000000001,241.53,241.55,0.0,0.01,3
1659371487.55992699,34128811,0.0,1.03,0.0,0.5700000000000001,241.55,241.57,0.0,0.0,3
1659371487.65991712,34228801,0.0,1.02,0.0,0.5700000000000001,241.56,241.58,0.0,0.01,3
1659371487.75990415,34328788,0.0,1.03,0.0,0.5700000000000001,241.57,241.59,0.0,0.0,3
1659371487.85983515,34428719,0.0,1.03,0.0,0.5700000000000001,241.58,241.6,0.0,0.0,3
1659371487.96019816,34529082,0.0,1.03,0.0,0.5700000000000001,241.58,241.61,0.0,0.0,3
1659371488.05982804,34628712,0.0,1.03,0.0,0.5700000000000001,241.58,241.61,0.0,0.0,3
1659371488.15985918,34728743,0.0,1.03,0.0,0.5700000000000001,241.58,241.6,0.0,0.01,3
1659371488.25989413,34828778,0.0,1.03,0.0,0.5700000000000001,241.57,241.6,0.0,0.0,3
1659371488.35985899,34928743,0.0,1.03,0.0,0.5700000000000001,241.56,241.59,0.0,0.01,3
1659371488.45986700,35028751,0.0,1.03,0.0,0.58,241.56,241.58,0.0,0.0,3
1659371488.55994821,35128832,0.0,1.02,0.0,0.5700000000000001,241.56,241.58,0.0,0.0,3
1659371488.65989900,35228783,0.0,1.03,0.0,0.58,241.56,241.58,0.0,0.0,3
1659371488.75987005,35328754,0.0,1.02,0.0,0.58,241.56,241.58,0.0,0.0,3
1659371488.85985208,35428736,0.0,1.03,0.0,0.58,241.56,241.58,0.0,0.0,3
1659371488.96018600,35529070,0.0,1.02,0.0,0.58,241.56,241.59,0.0,0.0,3
1659371489.05989408,35628778,0.0,1.03,0.0,0.58,241.57,241.59,0.0,0.0,3
1659371489.15991020,35728794,0.0,1.03,0.0,0.58,241.58,241.6,0.0,0.0,3
1659371489.25992799,35828812,0.0,1.03,0.0,0.58,241.59,241.61,0.0,0.01,3
1659371489.35990620,35928790,0.0,1.03,0.0,0.58,241.6,241.62,0.0,0.01,3
1659371489.45987511,36028759,0.0,1.03,0.0,0.58,241.62,241.64000000000001,0.0,0.01,3
1659371489.55987000,36128754,0.0,1.03,0.0,0.58,241.63,241.66,0.0,0.01,3
1659371489.65993905,36228823,0.0,1.03,0.0,0.58,241.65,241.67000000000002,0.0,0.01,3
1659371489.75990820,36328792,0.0,1.03,0.0,0.59,241.66,241.68,0.0,0.01,3
1659371489.85985708,36428741,0.0,1.03,0.0,0.59,241.67000000000002,241.69,0.0,0.01,3
1659371489.96024203,36529126,0.0,1.03,0.0,0.59,241.67000000000002,241.70000000000002,0.0,0.0,3
1659371490.05987906,36628763,0.0,1.03,0.0,0.59,241.68,241.70000000000002,0.0,0.01,3
1659371490.15994716,36728831,0.0,1.03,0.0,0.59,241.68,241.71,0.0,0.01,3
1659371490.25988603,36828770,0.0,1.03,0.0,0.59,241.69,241.71,0.0,0.0,3
1659371490.35992312,36928807,0.0,1.03,0.0,0.59,241.70000000000002,241.72,0.0,0.0,3
1659371490.45989919,37028783,0.0,1.03,0.0,0.6,241.71,241.73000000000002,0.0,0.01,3
1659371490.55984020,37128724,0.0,1.03,0.0,0.6,241.71,241.73000000000002,0.0,0.0,3
1659371490.65985703,37228741,0.0,1.03,0.0,0.6,241.71,241.73000000000002,0.0,0.01,3
1659371490.75987220,37328756,0.0,1.03,0.0,0.6,241.71,241.73000000000002,0.0,0.01,3
1659371490.85990906,37428793,0.0,1.03,0.0,0.6,241.71,241.74,0.0,0.01,3
1659371490.96023011,37529114,0.0,1.03,0.0,0.6,241.72,241.74,0.0,0.01,3
1659371491.05983901,37628723,0.0,1.03,0.0,0.6,241.73000000000002,241.75,0.0,0.01,3
1659371491.16000199,37728886,0.0,1.03,0.0,0.61,241.75,241.77,0.0,0.01,3
1659371491.25996614,37828850,0.0,1.03,0.0,0.61,241.76,241.78,0.0,0.01,3
1659371491.35984921,37928733,0.0,1.03,0.0,0.61,241.76,241.78,0.0,0.0,3
1659371491.45985317,38028737,0.0,1.03,0.0,0.61,241.77,241.79,0.0,0.0,3
1659371491.55986309,38128747,0.0,1.03,0.0,0.61,241.77,241.79,0.0,0.0,3
1659371491.65990019,38228784,0.0,1.03,0.0,0.61,241.77,241.79,0.0,0.0,3
1659371491.75992203,38328806,0.0,1.03,0.0,0.61,241.77,241.79,0.0,0.0,3
1659371491.85988712,38428771,0.0,1.03,0.0,0.62,241.77,241.79,0.0,0.0,3
1659371491.96010613,38528990,0.0,1.03,0.0,0.61,241.77,241.79,0.0,0.01,3
1659371492.05984402,38628728,0.0,1.03,0.0,0.62,241.77,241.8,0.0,0.01,3
1659371492.15990615,38728790,0.0,1.03,0.0,0.62,241.78,241.8,0.0,0.0,3
1659371492.25985813,38828742,0.0,1.03,0.0,0.62,241.79,241.81,0.0,0.01,3
1659371492.35989809,38928782,0.0,1.03,0.0,0.62,241.8,241.82,0.0,0.0,3
1659371492.45983720,39028721,0.0,1.03,0.0,0.62,241.81,241.83,0.0,0.01,3
1659371492.55986118,39128745,0.0,1.03,0.0,0.62,241.81,241.83,0.0,0.01,3
1659371492.65979719,39228681,0.0,1.03,0.0,0.62,241.8,241.82,0.0,0.0,3
1659371492.75989914,39328783,0.0,1.03,0.0,0.62,241.8,241.82,0.0,0.01,3
1659371492.85992312,39428807,0.0,1.03,0.0,0.62,241.79,241.81,0.0,0.01,3
1659371492.96022201,39529106,0.0,1.03,0.0,0.62,241.79,241.82,0.0,0.01,3
1659371493.05996013,39628844,0.0,1.03,0.0,0.62,241.8,241.82,0.0,0.0,3
1659371493.15984321,39728727,0.0,1.02,0.0,0.62,241.8,241.83,0.0,0.01,3
1659371493.25992608,39828810,0.0,1.03,0.0,0.62,241.81,241.83,0.0,0.01,3
1659371493.35987520,39928759,0.0,1.02,0.0,0.63,241.8,241.83,0.0,0.01,3
1659371493.45986199,40028746,0.0,1.03,0.0,0.63,241.8,241.82,0.0,0.01,3
1659371493.55983520,40128719,0.0,1.03,0.0,0.63,241.78,241.81,0.0,0.01,3
1659371493.65985107,40228735,0.0,1.02,0.0,0.63,241.77,241.79,0.0,0.01,3
1659371493.75988221,40328766,0.0,1.03,0.0,0.63,241.76,241.78,0.0,0.01,3
1659371493.85991502,40428799,0.0,1.02,0.0,0.63,241.75,241.77,0.0,0.01,3
1659371493.96025801,40529142,0.0,1.02,0.0,0.63,241.74,241.76,0.0,0.01,3
1659371494.05987406,40628758,0.0,1.02,0.0,0.63,241.74,241.76,0.0,0.01,3
1659371494.15981722,40728701,0.0,1.02,0.0,0.63,241.75,241.77,0.0,0.01,3
1659371494.25989604,40828780,0.0,1.02,0.0,0.63,241.75,241.77,0.0,0.01,3
1659371494.35983920,40928723,0.0,1.02,0.0,0.63,241.75,241.78,0.0,0.01,3
1659371494.45983601,41028720,0.0,1.02,0.0,0.63,241.76,241.78,0.0,0.01,3
1659371494.55984211,41128726,0.0,1.02,0.0,0.63,241.76,241.78,0.0,0.0,3
1659371494.65988708,41228771,0.0,1.02,0.0,0.63,241.76,241.78,0.0,0.01,3
1659371494.75991416,41328798,0.0,1.02,0.0,0.63,241.76,241.78,0.0,0.01,3
1659371494.85994601,41428830,0.0,1.02,0.0,0.63,241.77,241.79,0.0,0.01,3
1659371494.96019220,41529076,0.0,1.02,0.0,0.63,241.77,241.8,0.0,0.01,3
1659371495.05987000,41628754,0.0,1.02,0.0,0.64,241.78,241.8,0.0,0.01,3
1659371495.15986204,41728746,0.0,1.02,0.0,0.63,241.79,241.81,0.0,0.01,3
1659371495.25984812,41828732,0.0,1.02,0.0,0.64,241.81,241.83,0.0,0.01,3
1659371495.35988402,41928768,0.0,1.02,0.0,0.63,241.82,241.84,0.0,0.01,3
1659371495.45987916,42028763,0.0,1.02,0.0,0.64,241.84,241.86,0.0,0.01,3
1659371495.55985904,42128743,0.0,1.02,0.0,0.64,241.85,241.87,0.0,0.01,3
1659371495.65987015,42228754,0.0,1.02,0.0,0.63,241.86,241.88,0.0,0.01,3
1659371495.75991106,42328795,0.0,1.02,0.0,0.63,241.88,241.9,0.0,0.01,3
1659371495.85990620,42428790,0.0,1.02,0.0,0.63,241.88,241.9,0.0,0.01,3
1659371495.96032214,42529206,0.0,1.02,0.0,0.63,241.88,241.91,0.0,0.01,3
1659371496.05984902,42628733,0.0,1.02,0.0,0.63,241.89000000000001,241.91,0.0,0.01,3
1659371496.15987706,42728761,0.0,1.02,0.0,0.63,241.9,241.92000000000002,0.0,0.01,3
1659371496.25986910,42828753,0.0,1.02,0.0,0.63,241.9,241.93,0.0,0.01,3
1659371496.35990214,42928786,0.0,1.02,0.0,0.63,241.91,241.94,0.0,0.01,3
1659371496.45986605,43028750,0.0,1.02,0.0,0.63,241.92000000000002,241.94,0.0,0.01,3
1659371496.55985618,43128740,0.0,1.02,0.0,0.63,241.93,241.95000000000002,0.0,0.01,3
1659371496.65992117,43228805,0.0,1.02,0.0,0.63,241.93,241.96,0.0,0.01,3
1659371496.75985122,43328735,0.0,1.02,0.0,0.63,241.93,241.96,0.0,0.01,3
1659371496.85986114,43428745,0.0,1.02,0.0,0.63,241.93,241.96,0.0,0.01,3
1659371496.96017003,43529054,0.0,1.02,0.0,0.63,241.93,241.95000000000002,0.0,0.0,3
1659371497.05987406,43628758,0.0,1.02,0.0,0.62,241.93,241.95000000000002,0.0,0.0,3
1659371497.15989304,43728777,0.0,1.03,0.0,0.62,241.93,241.95000000000002,0.0,0.01,3
1659371497.25982404,43828708,0.0,1.03,0.0,0.63,241.92000000000002,241.95000000000002,0.0,0.0,3
1659371497.35991120,43928795,0.0,1.02,0.0,0.62,241.92000000000002,241.94,0.0,0.0,3
1659371497.45993400,44028818,0.0,1.03,0.0,0.63,241.92000000000002,241.94,0.0,0.01,3
1659371497.55995417,44128838,0.0,1.02,0.0,0.62,241.92000000000002,241.95000000000002,0.0,0.01,3
1659371497.65987206,44228756,0.0,1.03,0.0,0.62,241.93,241.95000000000002,0.0,0.01,3
1659371497.75988102,44328765,0.0,1.03,0.0,0.62,241.93,241.95000000000002,0.0,0.0,3
1659371497.85990906,44428793,0.0,1.03,0.0,0.62,241.94,241.96,0.0,0.01,3
1659371497.96023822,44529122,0.0,1.03,0.0,0.62,241.94,241.96,0.0,0.01,3
1659371498.05995703,44628841,0.0,1.03,0.0,0.62,241.95000000000002,241.98000000000002,0.0,0.01,3
1659371498.15988803,44728772,0.0,1.03,0.0,0.62,241.96,241.98000000000002,0.0,0.01,3
1659371498.25983906,44828723,0.0,1.03,0.0,0.62,241.97,241.99,0.0,0.01,3
1659371498.35987115,44928755,0.0,1.03,0.0,0.62,241.97,241.99,0.0,0.01,3
1659371498.45992613,45028810,0.0,1.03,0.0,0.62,241.96,241.99,0.0,0.01,3
1659371498.55988407,45128768,0.0,1.03,0.0,0.62,241.96,241.98000000000002,0.0,0.01,3
1659371498.65989208,45228776,0.0,1.03,0.0,0.62,241.96,241.98000000000002,0.0,0.01,3
1659371498.75987005,45328754,0.0,1.03,0.0,0.62,241.95000000000002,241.98000000000002,0.0,0.01,3
1659371498.85996413,45428848,0.0,1.03,0.0,0.62,241.94,241.97,0.0,0.01,3
1659371498.96021414,45529098,0.0,1.03,0.0,0.62,241.93,241.96,0.0,0.01,3
1659371499.05985904,45628743,0.0,1.03,0.0,0.62,241.93,241.95000000000002,0.0,0.01,3
1659371499.15987110,45728755,0.0,1.03,0.0,0.62,241.93,241.95000000000002,0.0,0.01,3
1659371499.25984120,45828725,0.0,1.03,0.0,0.62,241.93,241.95000000000002,0.0,0.01,3
1659371499.35992312,45928807,0.0,1.03,0.0,0.62,241.93,241.95000000000002,0.0,0.01,3
1659371499.45988703,46028771,0.0,1.03,0.0,0.62,241.94,241.96,0.0,0.01,3
1659371499.55993819,46128822,0.0,1.03,0.0,0.62,241.95000000000002,241.97,0.0,0.01,3
1659371499.65984821,46228732,0.0,1.03,0.0,0.61,241.96,241.98000000000002,0.0,0.01,3
1659371499.75984621,46328730,0.0,1.03,0.0,0.61,241.97,241.99,0.0,0.02,3
1659371499.85988712,46428771,0.0,1.03,0.0,0.61,241.98000000000002,242.0,0.0,0.02,3
1659371499.96016502,46529049,0.0,1.03,0.0,0.61,242.0,242.02,0.0,0.02,3
1659371500.05987906,46628763,0.0,1.03,0.0,0.61,242.01,242.04,0.0,0.02,3
1659371500.15993619,46728820,0.0,1.03,0.0,0.61,242.03,242.05,0.0,0.01,3
1659371500.25994301,46828827,0.0,1.03,0.0,0.61,242.05,242.07,0.0,0.01,3
1659371500.35980511,46928689,0.0,1.03,0.0,0.61,242.06,242.08,0.0,0.01,3
1659371500.45987415,47028758,0.0,1.03,0.0,0.61,242.07,242.09,0.0,0.01,3
1659371500.55990005,47128784,0.0,1.03,0.0,0.61,242.07,242.1,0.0,0.01,3
1659371500.65983105,47228715,0.0,1.03,0.0,0.61,242.08,242.1,0.0,0.01,3
1659371500.75984001,47328724,0.0,1.03,0.0,0.61,242.08,242.1,0.0,0.01,3
1659371500.85990119,47428785,0.0,1.03,0.0,0.61,242.08,242.1,0.0,0.01,3
1659371500.96020103,47529085,0.0,1.03,0.0,0.6,242.08,242.1,0.0,0.01,3
1659371501.05990005,47628784,0.0,1.03,0.0,0.6,242.08,242.1,0.0,0.01,3
1659371501.15991616,47728800,0.0,1.03,0.0,0.6,242.08,242.1,0.0,0.01,3
1659371501.25985599,47828740,0.0,1.03,0.0,0.6,242.09,242.11,0.0,0.01,3
1659371501.35982800,47928712,0.0,1.03,0.0,0.6,242.09,242.11,0.0,0.01,3
1659371501.45985818,48028742,0.0,1.03,0.0,0.6,242.09,242.11,0.0,0.01,3
1659371501.55985308,48128737,0.0,1.03,0.0,0.6,242.09,242.11,0.0,0.01,3
1659371501.65990806,48228792,0.0,1.03,0.0,0.6,242.09,242.11,0.0,0.01,3
1659371501.75991702,48328801,0.0,1.03,0.0,0.6,242.09,242.11,0.0,0.01,3
1659371501.85997510,48428859,0.0,1.03,0.0,0.6,242.08,242.11,0.0,0.01,3
1659371501.96019006,48529074,0.0,1.03,0.0,0.6,242.08,242.1,0.0,0.0,3
1659371502.05991411,48628798,0.0,1.03,0.0,0.6,242.08,242.1,0.0,0.0,3
1659371502.15989113,48728775,0.0,1.03,0.0,0.6,242.08,242.1,0.0,0.01,3
1659371502.25996113,48828845,0.0,1.03,0.0,0.6,242.08,242.11,0.0,0.0,3
1659371502.35984707,48928731,0.0,1.03,0.0,0.6,242.09,242.11,0.0,0.01,3
1659371502.45987415,49028758,0.0,1.03,0.0,0.6,242.09,242.11,0.0,0.01,3
1659371502.55990505,49128789,0.0,1.03,0.0,0.6,242.09,242.11,0.0,0.01,3
1659371502.65984201,49228726,0.0,1.03,0.0,0.6,242.09,242.11,0.0,0.01,3
1659371502.75985599,49328740,0.0,1.03,0.0,0.6,242.09,242.11,0.0,0.01,3
1659371502.85987401,49428758,0.0,1.03,0.0,0.59,242.09,242.11,0.0,0.01,3
1659371502.96025300,49529137,0.0,1.03,0.0,0.59,242.09,242.12,0.0,0.01,3
1659371503.05985403,49628738,0.0,1.03,0.0,0.59,242.09,242.12,0.0,0.01,3
1659371503.15985608,49728740,0.0,1.03,0.0,0.59,242.09,242.11,0.0,0.01,3
1659371503.25988817,49828772,0.0,1.03,0.0,0.59,242.09,242.11,0.0,0.01,3
1659371503.35989499,49928779,0.0,1.03,0.0,0.59,242.09,242.11,0.0,0.01,3
1659371503.45988917,50028773,0.0,1.03,0.0,0.59,242.08,242.1,0.0,0.01,3
1659371503.55985999,50128744,0.0,1.03,0.0,0.59,242.08,242.1,0.0,0.01,3
1659371503.65989900,50228783,0.0,1.03,0.0,0.6,242.07,242.09,0.0,0.01,3
1659371503.75998306,50328867,0.0,1.03,0.0,0.6,242.07,242.09,0.0,0.01,3
1659371503.85996914,50428853,0.0,1.03,0.0,0.6,242.07,242.09,0.0,0.01,3
1659371503.96023512,50529119,0.0,1.03,0.0,0.6,242.07,242.1,0.0,0.01,3
1659371504.05989504,50628779,0.0,1.03,0.0,0.6,242.08,242.1,0.0,0.01,3
1659371504.15986514,50728749,0.0,1.03,0.0,0.6,242.1,242.12,0.0,0.02,3
1659371504.25986099,50828745,0.0,1.03,0.0,0.6,242.11,242.13,0.0,0.01,3
1659371504.35989714,50928781,0.0,1.02,0.0,0.6,242.11,242.13,0.0,0.01,3
1659371504.45985222,51028736,0.0,1.02,0.0,0.6,242.11,242.13,0.0,0.01,3
1659371504.55984902,51128733,0.0,1.02,0.0,0.61,242.11,242.13,0.0,0.01,3
1659371504.65988302,51228767,0.0,1.02,0.0,0.61,242.11,242.13,0.0,0.01,3
1659371504.75996804,51328852,0.0,1.02,0.0,0.61,242.1,242.12,0.0,0.01,3
1659371504.85990000,51428784,0.0,1.02,0.0,0.61,242.1,242.12,0.0,0.01,3
1659371504.96024919,51529133,0.0,1.02,0.0,0.61,242.09,242.12,0.0,0.01,3
1659371505.05976820,51628652,0.0,1.02,0.0,0.61,242.09,242.11,0.0,0.01,3
1659371505.15988421,51728768,0.0,1.02,0.0,0.61,242.09,242.11,0.0,0.0,3
1659371505.25958419,51828468,0.0,1.02,0.0,0.61,242.09,242.11,0.0,0.01,3
1659371505.35959005,51928474,0.0,1.02,0.0,0.61,242.09,242.11,0.0,0.01,3
1659371505.45983005,52028714,0.0,1.02,0.0,0.61,242.09,242.11,0.0,0.01,3
1659371505.55984521,52128729,0.0,1.02,0.0,0.61,242.09,242.11,0.0,0.01,3
1659371505.65994620,52228830,0.0,1.02,0.0,0.61,242.09,242.11,0.0,0.01,3
1659371505.75984907,52328733,0.0,1.02,0.0,0.61,242.1,242.12,0.0,0.01,3
1659371505.85993719,52428821,0.0,1.02,0.0,0.61,242.1,242.13,0.0,0.01,3
1659371505.96018910,52529073,0.0,1.02,0.0,0.6,242.11,242.13,0.0,0.01,3
1659371506.05986118,52628745,0.0,1.02,0.0,0.6,242.12,242.14000000000001,0.0,0.01,3
1659371506.15986919,52728753,0.0,1.02,0.0,0.6,242.12,242.14000000000001,0.0,0.01,3
1659371506.25986218,52828746,0.0,1.01,0.0,0.6,242.13,242.15,0.0,0.01,3
1659371506.35987711,52928761,0.0,1.02,0.0,0.6,242.14000000000001,242.16,0.0,0.01,3
1659371506.45994401,53028828,0.0,1.02,0.0,0.6,242.15,242.17000000000002,0.0,0.02,3
1659371506.55997610,53128860,0.0,1.02,0.0,0.6,242.15,242.18,0.0,0.02,3
1659371506.65988111,53228765,0.0,1.02,0.0,0.6,242.15,242.18,0.0,0.01,3
1659371506.75988722,53328771,0.0,1.02,0.0,0.6,242.15,242.18,0.0,0.01,3
1659371506.85985112,53428735,0.0,1.02,0.0,0.6,242.15,242.17000000000002,0.0,0.01,3
1659371506.96022010,53529104,0.0,1.02,0.0,0.6,242.14000000000001,242.16,0.0,0.01,3
1659371507.05982804,53628712,0.0,1.02,0.0,0.6,242.14000000000001,242.16,0.0,0.01,3
1659371507.15984321,53728727,0.0,1.02,0.0,0.59,242.14000000000001,242.16,0.0,0.01,3
1659371507.25988221,53828766,0.0,1.02,0.0,0.59,242.14000000000001,242.16,0.0,0.01,3
1659371507.35984921,53928733,0.0,1.02,0.0,0.59,242.14000000000001,242.16,0.0,0.01,3
1659371507.45990920,54028793,0.0,1.02,0.0,0.59,242.14000000000001,242.16,0.0,0.01,3
1659371507.55986404,54128748,0.0,1.02,0.0,0.59,242.14000000000001,242.16,0.0,0.01,3
1659371507.65987611,54228760,0.0,1.02,0.0,0.59,242.14000000000001,242.16,0.0,0.01,3
1659371507.75985909,54328743,0.0,1.02,0.0,0.59,242.14000000000001,242.16,0.0,0.01,3
1659371507.85991812,54428802,0.0,1.02,0.0,0.59,242.15,242.17000000000002,0.0,0.02,3
1659371507.96023321,54529117,0.0,1.02,0.0,0.58,242.15,242.17000000000002,0.0,0.02,3
1659371508.05989718,54628781,0.0,1.02,0.0,0.58,242.15,242.17000000000002,0.0,0.02,3
1659371508.15983415,54728718,0.0,1.02,0.0,0.58,242.15,242.17000000000002,0.0,0.02,3
1659371508.25979304,54828677,0.0,1.02,0.0,0.58,242.14000000000001,242.16,0.0,0.02,3
1659371508.36000800,54928892,0.0,1.02,0.0,0.58,242.15,242.17000000000002,0.0,0.01,3
1659371508.45991111,55028795,0.0,1.02,0.0,0.58,242.15,242.17000000000002,0.0,0.01,3
1659371508.55994105,55128825,0.0,1.02,0.0,0.58,242.15,242.18,0.0,0.01,3
1659371508.65983915,55228723,0.0,1.03,0.0,0.59,242.16,242.18,0.0,0.01,3
1659371508.75991607,55328800,0.0,1.03,0.0,0.59,242.16,242.18,0.0,0.01,3
1659371508.85993600,55428820,0.0,1.03,0.0,0.59,242.16,242.18,0.0,0.01,3
1659371508.96024513,55529129,0.0,1.03,0.0,0.59,242.16,242.18,0.0,0.01,3
1659371509.05984020,55628724,0.0,1.02,0.0,0.59,242.16,242.18,0.0,0.01,3
1659371509.15983510,55728719,0.0,1.02,0.0,0.59,242.16,242.18,0.0,0.01,3
1659371509.25991321,55828797,0.0,1.02,0.0,0.59,242.16,242.18,0.0,0.01,3
1659371509.35984302,55928727,0.0,1.02,0.0,0.59,242.16,242.19,0.0,0.01,3
1659371509.45986009,56028744,0.0,1.02,0.0,0.59,242.17000000000002,242.19,0.0,0.01,3
1659371509.55991006,56128794,0.0,1.02,0.0,0.59,242.18,242.20000000000002,0.0,0.01,3
1659371509.65985608,56228740,0.0,1.02,0.0,0.59,242.18,242.20000000000002,0.0,0.01,3
1659371509.75983405,56328718,0.0,1.02,0.0,0.59,242.18,242.20000000000002,0.0,0.01,3
1659371509.85990906,56428793,0.0,1.03,0.0,0.59,242.18,242.20000000000002,0.0,0.01,3
1659371509.96020699,56529091,0.0,1.03,0.0,0.58,242.18,242.20000000000002,0.0,0.02,3
1659371510.05995321,56628837,0.0,1.03,0.0,0.58,242.18,242.20000000000002,0.0,0.01,3
1659371510.15990305,56728787,0.0,1.03,0.0,0.58,242.18,242.20000000000002,0.0,0.01,3
1659371510.25986600,56828750,0.0,1.03,0.0,0.58,242.18,242.20000000000002,0.0,0.01,3
1659371510.35987210,56928756,0.0,1.03,0.0,0.58,242.18,242.21,0.0,0.01,3
1659371510.45990705,57028791,0.0,1.02,0.0,0.58,242.19,242.21,0.0,0.02,3
1659371510.55989313,57128777,0.0,1.02,0.0,0.58,242.20000000000002,242.23000000000002,0.0,0.01,3
1659371510.65995002,57228834,0.0,1.03,0.0,0.58,242.22,242.24,0.0,0.01,3
1659371510.75986910,57328753,0.0,1.03,0.0,0.58,242.23000000000002,242.25,0.0,0.01,3
1659371510.85988212,57428766,0.0,1.03,0.0,0.58,242.24,242.26,0.0,0.01,3
1659371510.96014905,57529033,0.0,1.04,0.0,0.58,242.24,242.27,0.0,0.01,3
1659371511.05994320,57628827,0.0,1.03,0.0,0.58,242.25,242.27,0.0,0.01,3
1659371511.15987420,57728758,0.0,1.04,0.0,0.58,242.25,242.27,0.0,0.01,3
1659371511.25979519,57828679,0.0,1.04,0.0,0.58,242.24,242.27,0.0,0.0,3
1659371511.35980415,57928688,0.0,1.04,0.0,0.5700000000000001,242.24,242.26,0.0,0.01,3
1659371511.45990705,58028791,0.0,1.04,0.0,0.5700000000000001,242.24,242.26,0.0,0.0,3
1659371511.55986118,58128745,0.0,1.04,0.0,0.5700000000000001,242.24,242.26,0.0,0.01,3
1659371511.65983105,58228715,0.0,1.03,0.0,0.5700000000000001,242.24,242.27,0.0,0.01,3
1659371511.75985003,58328734,0.0,1.03,0.0,0.5700000000000001,242.25,242.27,0.0,0.01,3
1659371511.85990405,58428788,0.0,1.03,0.0,0.5700000000000001,242.25,242.27,0.0,0.01,3
1659371511.96029902,58529183,0.0,1.03,0.0,0.5700000000000001,242.26,242.28,0.0,0.0,3
1659371512.05985808,58628742,0.0,1.03,0.0,0.5700000000000001,242.26,242.29,0.0,0.01,3
1659371512.15990114,58728785,0.0,1.03,0.0,0.5700000000000001,242.27,242.29,0.0,0.01,3
1659371512.25985408,58828738,0.0,1.03,0.0,0.5700000000000001,242.27,242.3,0.0,0.0,3
1659371512.35986114,58928745,0.0,1.03,0.0,0.5700000000000001,242.28,242.3,0.0,0.0,3
1659371512.45985699,59028741,0.0,1.03,0.0,0.58,242.28,242.3,0.0,0.0,3
1659371512.55977821,59128662,0.0,1.03,0.0,0.5700000000000001,242.28,242.31,0.0,0.0,3
1659371512.65989614,59228780,0.0,1.03,0.0,0.58,242.29,242.31,0.0,0.0,3
1659371512.75997806,59328862,0.0,1.02,0.0,0.58,242.29,242.31,0.0,0.0,3
1659371512.86001015,59428894,0.0,1.03,0.0,0.58,242.29,242.31,0.0,0.0,3
1659371512.96018910,59529073,0.0,1.03,0.0,0.58,242.28,242.31,0.0,0.0,3
1659371513.05991101,59628795,0.0,1.02,0.0,0.58,242.29,242.31,0.0,0.01,3
1659371513.15983605,59728720,0.0,1.02,0.0,0.5700000000000001,242.29,242.32,0.0,0.0,3
1659371513.25983119,59828715,0.0,1.02,0.0,0.58,242.3,242.32,0.0,0.01,3
1659371513.35985518,59928739,0.0,1.02,0.0,0.58,242.3,242.33,0.0,0.01,3
1659371513.45989513,60028779,0.0,1.02,0.0,0.58,242.31,242.34,0.0,0.01,3
1659371513.55989218,60128776,0.0,1.02,0.0,0.58,242.32,242.35,0.0,0.01,3
1659371513.65988612,60228770,0.0,1.02,0.0,0.58,242.33,242.36,0.0,0.01,3
1659371513.75992322,60328807,0.0,1.02,0.0,0.58,242.34,242.36,0.0,0.01,3
1659371513.85987616,60428760,0.0,1.02,0.0,0.58,242.34,242.37,0.0,0.01,3
1659371513.96015120,60529035,0.0,1.02,0.0,0.58,242.34,242.36,0.0,0.02,3
1659371514.05984616,60628730,0.0,1.02,0.0,0.58,242.34,242.36,0.0,0.02,3
1659371514.15979505,60728679,0.0,1.02,0.0,0.58,242.34,242.36,0.0,0.01,3
1659371514.25992203,60828806,0.0,1.02,0.0,0.58,242.34,242.36,0.0,0.01,3
1659371514.35986304,60928747,0.0,1.03,0.0,0.58,242.35,242.37,0.0,0.01,3
1659371514.45982599,61028710,0.0,1.03,0.0,0.58,242.35,242.37,0.0,0.01,3
1659371514.55986118,61128745,0.0,1.03,0.0,0.58,242.36,242.38,0.0,0.01,3
1659371514.65996504,61228849,0.0,1.03,0.0,0.5700000000000001,242.36,242.38,0.0,0.01,3
1659371514.75982308,61328707,0.0,1.03,0.0,0.58,242.37,242.39000000000001,0.0,0.01,3
1659371514.85989022,61428774,0.0,1.03,0.0,0.58,242.38,242.4,0.0,0.01,3
1659371514.96026111,61529145,0.0,1.03,0.0,0.58,242.38,242.41,0.0,0.01,3
1659371515.05991101,61628795,0.0,1.04,0.0,0.58,242.39000000000001,242.41,0.0,0.01,3
1659371515.15983701,61728721,0.0,1.04,0.0,0.58,242.4,242.42000000000002,0.0,0.0,3
1659371515.25988603,61828770,0.0,1.04,0.0,0.5700000000000001,242.4,242.42000000000002,0.0,0.01,3
1659371515.35984015,61928724,0.0,1.04,0.0,0.5700000000000001,242.41,242.43,0.0,0.01,3
1659371515.45985818,62028742,0.0,1.04,0.0,0.5700000000000001,242.42000000000002,242.44,0.0,0.01,3
1659371515.55989099,62128775,0.0,1.04,0.0,0.5700000000000001,242.43,242.45000000000002,0.0,0.02,3
1659371515.65988517,62228769,0.0,1.04,0.0,0.5700000000000001,242.43,242.46,0.0,0.02,3
1659371515.75986004,62328744,0.0,1.04,0.0,0.5700000000000001,242.44,242.46,0.0,0.01,3
1659371515.85992122,62428805,0.0,1.04,0.0,0.5700000000000001,242.44,242.46,0.0,0.01,3
1659371515.96020699,62529091,0.0,1.04,0.0,0.5700000000000001,242.44,242.46,0.0,0.01,3
1659371516.05986905,62628753,0.0,1.03,0.0,0.56,242.44,242.46,0.0,0.01,3
1659371516.15991616,62728800,0.0,1.04,0.0,0.5700000000000001,242.44,242.46,0.0,0.01,3
1659371516.25992513,62828809,0.0,1.04,0.0,0.5700000000000001,242.43,242.46,0.0,0.01,3
1659371516.35990214,62928786,0.0,1.03,0.0,0.56,242.43,242.45000000000002,0.0,0.01,3
1659371516.46000004,63028884,0.0,1.03,0.0,0.56,242.43,242.46,0.0,0.01,3
1659371516.55989814,63128782,0.0,1.03,0.0,0.5700000000000001,242.44,242.46,0.0,0.01,3
1659371516.65985322,63228737,0.0,1.03,0.0,0.5700000000000001,242.45000000000002,242.47,0.0,0.01,3
1659371516.75990415,63328788,0.0,1.03,0.0,0.5700000000000001,242.46,242.48000000000002,0.0,0.01,3
1659371516.85986304,63428747,0.0,1.03,0.0,0.5700000000000001,242.47,242.5,0.0,0.02,3
1659371516.96023202,63529116,0.0,1.03,0.0,0.5700000000000001,242.48000000000002,242.5,0.0,0.02,3
1659371517.05986309,63628747,0.0,1.02,0.0,0.5700000000000001,242.48000000000002,242.51,0.0,0.01,3
1659371517.15987110,63728755,0.0,1.02,0.0,0.58,242.48000000000002,242.5,0.0,0.01,3
1659371517.25988507,63828769,0.0,1.01,0.0,0.58,242.48000000000002,242.5,0.0,0.01,3
1659371517.35993814,63928822,0.0,1.01,0.0,0.58,242.48000000000002,242.5,0.0,0.01,3
1659371517.45990705,64028791,0.0,1.01,0.0,0.58,242.48000000000002,242.5,0.0,0.01,3
1659371517.55982709,64128711,0.0,1.01,0.0,0.58,242.48000000000002,242.5,0.0,0.01,3
1659371517.65979314,64228677,0.0,1.01,0.0,0.58,242.48000000000002,242.5,0.0,0.01,3
1659371517.75962400,64328508,0.0,1.02,0.0,0.58,242.48000000000002,242.5,0.0,0.01,3
1659371517.85992599,64428810,0.0,1.01,0.0,0.58,242.48000000000002,242.51,0.0,0.01,3
1659371517.96022415,64529108,0.0,1.02,0.0,0.58,242.48000000000002,242.51,0.0,0.01,3
1659371518.05988121,64628765,0.0,1.02,0.0,0.58,242.49,242.51,0.0,0.01,3
1659371518.15987015,64728754,0.0,1.02,0.0,0.58,242.48000000000002,242.5,0.0,0.01,3
1659371518.25995302,64828837,0.0,1.02,0.0,0.58,242.48000000000002,242.5,0.0,0.01,3
1659371518.35985422,64928738,0.0,1.02,0.0,0.58,242.48000000000002,242.5,0.0,0.01,3
1659371518.45990705,65028791,0.0,1.01,0.0,0.58,242.47,242.49,0.0,0.01,3
1659371518.55987620,65128760,0.0,1.01,0.0,0.58,242.47,242.49,0.0,0.01,3
1659371518.65984511,65228729,0.0,1.01,0.0,0.58,242.47,242.49,0.0,0.01,3
1659371518.75987005,65328754,0.0,1.01,0.0,0.58,242.46,242.49,0.0,0.01,3
1659371518.85990405,65428788,0.0,1.01,0.0,0.58,242.46,242.48000000000002,0.0,0.01,3
1659371518.96017408,65529058,0.0,1.01,0.0,0.58,242.46,242.48000000000002,0.0,0.01,3
1659371519.05994821,65628832,0.0,1.01,0.0,0.58,242.46,242.48000000000002,0.0,0.01,3
1659371519.15994620,65728830,0.0,1.01,0.0,0.58,242.46,242.48000000000002,0.0,0.01,3
1659371519.25991511,65828799,0.0,1.02,0.0,0.58,242.46,242.48000000000002,0.0,0.01,3
1659371519.35990620,65928790,0.0,1.01,0.0,0.59,242.46,242.48000000000002,0.0,0.01,3
1659371519.45995307,66028837,0.0,1.01,0.0,0.58,242.45000000000002,242.48000000000002,0.0,0.02,3
1659371519.55987000,66128754,0.0,1.02,0.0,0.58,242.45000000000002,242.47,0.0,0.01,3
1659371519.65987515,66228759,0.0,1.02,0.0,0.58,242.44,242.46,0.0,0.02,3
1659371519.75991821,66328802,0.0,1.02,0.0,0.58,242.44,242.46,0.0,0.01,3
1659371519.85987210,66428756,0.0,1.02,0.0,0.58,242.44,242.46,0.0,0.01,3
1659371519.96027017,66529154,0.0,1.02,0.0,0.58,242.44,242.46,0.0,0.01,3
1659371520.05993915,66628823,0.0,1.01,0.0,0.58,242.44,242.46,0.0,0.01,3
1659371520.15987515,66728759,0.0,1.01,0.0,0.5700000000000001,242.44,242.46,0.0,0.01,3
1659371520.25988603,66828770,0.0,1.01,0.0,0.58,242.44,242.46,0.0,0.01,3
1659371520.35977721,66928661,0.0,1.01,0.0,0.58,242.44,242.46,0.0,0.01,3
1659371520.45988917,67028773,0.0,1.01,0.0,0.58,242.44,242.46,0.0,0.01,3
1659371520.55998611,67128870,0.0,1.01,0.0,0.58,242.44,242.46,0.0,0.01,3
1659371520.65983105,67228715,0.0,1.01,0.0,0.58,242.44,242.46,0.0,0.01,3
1659371520.75987911,67328763,0.0,1.01,0.0,0.5700000000000001,242.44,242.46,0.0,0.01,3
1659371520.85993409,67428818,0.0,1.02,0.0,0.5700000000000001,242.44,242.47,0.0,0.01,3
1659371520.96028900,67529173,0.0,1.02,0.0,0.5700000000000001,242.44,242.47,0.0,0.01,3
1659371521.05982113,67628705,0.0,1.02,0.0,0.5700000000000001,242.44,242.46,0.0,0.01,3
1659371521.15993500,67728819,0.0,1.02,0.0,0.5700000000000001,242.44,242.46,0.0,0.01,3
1659371521.25986600,67828750,0.0,1.02,0.0,0.5700000000000001,242.44,242.46,0.0,0.01,3
1659371521.35988808,67928772,0.0,1.02,0.0,0.5700000000000001,242.44,242.46,0.0,0.01,3
1659371521.45987105,68028755,0.0,1.02,0.0,0.5700000000000001,242.44,242.47,0.0,0.01,3
1659371521.55986118,68128745,0.0,1.02,0.0,0.5700000000000001,242.45000000000002,242.47,0.0,0.0,3
1659371521.65985799,68228742,0.0,1.02,0.0,0.5700000000000001,242.45000000000002,242.47,0.0,0.0,3
1659371521.75985312,68328737,0.0,1.02,0.0,0.5700000000000001,242.45000000000002,242.47,0.0,0.0,3
1659371521.85992122,68428805,0.0,1.02,0.0,0.5700000000000001,242.45000000000002,242.47,0.0,0.01,3
1659371521.96014404,68529028,0.0,1.02,0.0,0.5700000000000001,242.45000000000002,242.47,0.0,0.01,3
1659371522.05989599,68628780,0.0,1.02,0.0,0.5700000000000001,242.45000000000002,242.47,0.0,0.01,3
1659371522.15989709,68728781,0.0,1.02,0.0,0.5700000000000001,242.44,242.46,0.0,0.02,3
1659371522.25976920,68828653,0.0,1.02,0.0,0.5700000000000001,242.43,242.45000000000002,0.0,0.02,3
1659371522.35990500,68928789,0.0,1.02,0.0,0.5700000000000001,242.42000000000002,242.44,0.0,0.01,3
1659371522.45984411,69028728,0.0,1.02,0.0,0.5700000000000001,242.41,242.43,0.0,0.01,3
1659371522.55984712,69128731,0.0,1.02,0.0,0.5700000000000001,242.4,242.42000000000002,0.0,0.01,3
1659371522.65992403,69228808,0.0,1.02,0.0,0.58,242.4,242.42000000000002,0.0,0.01,3
1659371522.75990915,69328793,0.0,1.02,0.0,0.58,242.4,242.42000000000002,0.0,0.01,3
1659371522.85992312,69428807,0.0,1.02,0.0,0.58,242.4,242.42000000000002,0.0,0.01,3
1659371522.96026421,69529148,0.0,1.02,0.0,0.58,242.4,242.42000000000002,0.0,0.01,3
1659371523.05984902,69628733,0.0,1.02,0.0,0.58,242.4,242.42000000000002,0.0,0.01,3
1659371523.15984702,69728731,0.0,1.02,0.0,0.58,242.41,242.43,0.0,0.01,3
1659371523.25990105,69828785,0.0,1.02,0.0,0.58,242.41,242.43,0.0,0.01,3
1659371523.35986710,69928751,0.0,1.02,0.0,0.58,242.41,242.43,0.0,0.01,3
1659371523.45988011,70028764,0.0,1.02,0.0,0.58,242.41,242.43,0.0,0.01,3
1659371523.55991411,70128798,0.0,1.01,0.0,0.58,242.41,242.43,0.0,0.01,3
1659371523.65995502,70228839,0.0,1.01,0.0,0.58,242.4,242.43,0.0,0.01,3
1659371523.75983500,70328719,0.0,1.01,0.0,0.58,242.4,242.43,0.0,0.01,3
1659371523.85987306,70428757,0.0,1.01,0.0,0.58,242.4,242.42000000000002,0.0,0.01,3
1659371523.96021819,70529102,0.0,1.0,0.0,0.58,242.39000000000001,242.42000000000002,0.0,0.01,3
1659371524.05992222,70628806,0.0,1.01,0.0,0.58,242.39000000000001,242.41,0.0,0.01,3
1659371524.15985918,70728743,0.0,1.0,0.0,0.5700000000000001,242.38,242.4,0.0,0.01,3
1659371524.25983906,70828723,0.0,1.0,0.0,0.5700000000000001,242.38,242.4,0.0,0.01,3
1659371524.35993314,70928817,0.0,1.01,0.0,0.5700000000000001,242.38,242.4,0.0,0.01,3
1659371524.45991802,71028802,0.0,1.01,0.0,0.5700000000000001,242.38,242.4,0.0,0.01,3
1659371524.55996418,71128848,0.0,1.01,0.0,0.5700000000000001,242.38,242.4,0.0,0.01,3
1659371524.65985799,71228742,0.0,1.01,0.0,0.5700000000000001,242.37,242.4,0.0,0.01,3
1659371524.75998807,71328872,0.0,1.01,0.0,0.5700000000000001,242.37,242.4,0.0,0.01,3
1659371524.85986614,71428750,0.0,1.01,0.0,0.5700000000000001,242.37,242.4,0.0,0.0,3
1659371524.96013522,71529019,0.0,1.02,0.0,0.5700000000000001,242.37,242.39000000000001,0.0,0.0,3
1659371525.05990314,71628787,0.0,1.02,0.0,0.5700000000000001,242.37,242.39000000000001,0.0,0.01,3
1659371525.15988302,71728767,0.0,1.02,0.0,0.5700000000000001,242.37,242.39000000000001,0.0,0.01,3
1659371525.25992417,71828808,0.0,1.02,0.0,0.5700000000000001,242.36,242.39000000000001,0.0,0.01,3
1659371525.35990620,71928790,0.0,1.02,0.0,0.5700000000000001,242.36,242.39000000000001,0.0,0.01,3
1659371525.45993018,72028814,0.0,1.02,0.0,0.5700000000000001,242.36,242.38,0.0,0.01,3
1659371525.55989313,72128777,0.0,1.02,0.0,0.5700000000000001,242.36,242.38,0.0,0.01,3
1659371525.65983200,72228716,0.0,1.02,0.0,0.5700000000000001,242.36,242.38,0.0,0.0,3
1659371525.75982904,72328713,0.0,1.02,0.0,0.5700000000000001,242.35,242.38,0.0,0.0,3
1659371525.85990810,72428792,0.0,1.02,0.0,0.5700000000000001,242.35,242.38,0.0,0.01,3
1659371525.96021819,72529102,0.0,1.02,0.0,0.5700000000000001,242.35,242.37,0.0,0.01,3
1659371526.05986905,72628753,0.0,1.02,0.0,0.5700000000000001,242.35,242.37,0.0,0.0,3
1659371526.15984201,72728726,0.0,1.03,0.0,0.5700000000000001,242.35,242.37,0.0,0.0,3
1659371526.25988102,72828765,0.0,1.03,0.0,0.5700000000000001,242.35,242.37,0.0,0.0,3
1659371526.35990906,72928793,0.0,1.03,0.0,0.5700000000000001,242.35,242.37,0.0,0.0,3
1659371526.45986819,73028752,0.0,1.02,0.0,0.5700000000000001,242.35,242.37,0.0,0.0,3
1659371526.55976915,73128653,0.0,1.03,0.0,0.5700000000000001,242.35,242.37,0.0,0.0,3
1659371526.65988111,73228765,0.0,1.03,0.0,0.5700000000000001,242.35,242.38,0.0,0.01,3
1659371526.75991511,73328799,0.0,1.03,0.0,0.5700000000000001,242.36,242.38,0.0,0.01,3
1659371526.85999799,73428882,0.0,1.03,0.0,0.5700000000000001,242.36,242.38,0.0,0.01,3
1659371526.96020699,73529091,0.0,1.03,0.0,0.5700000000000001,242.36,242.38,0.0,0.01,3
1659371527.05992222,73628806,0.0,1.03,0.0,0.5700000000000001,242.36,242.38,0.0,0.02,3
1659371527.15983105,73728715,0.0,1.03,0.0,0.5700000000000001,242.35,242.38,0.0,0.02,3
1659371527.25997019,73828854,0.0,1.03,0.0,0.5700000000000001,242.35,242.37,0.0,0.01,3
1659371527.35984516,73928729,0.0,1.02,0.0,0.5700000000000001,242.34,242.36,0.0,0.02,3
1659371527.45993018,74028814,0.0,1.03,0.0,0.5700000000000001,242.33,242.36,0.0,0.01,3
1659371527.55987120,74128755,0.0,1.03,0.0,0.5700000000000001,242.33,242.35,0.0,0.01,3
1659371527.65990806,74228792,0.0,1.02,0.0,0.56,242.32,242.34,0.0,0.01,3
1659371527.75989318,74328777,0.0,1.02,0.0,0.56,242.32,242.34,0.0,0.01,3
1659371527.85986519,74428749,0.0,1.03,0.0,0.56,242.32,242.34,0.0,0.01,3
1659371527.96023417,74529118,0.0,1.02,0.0,0.56,242.31,242.34,0.0,0.01,3
1659371528.05987215,74628756,0.0,1.02,0.0,0.56,242.32,242.34,0.0,0.01,3
1659371528.15991020,74728794,0.0,1.03,0.0,0.56,242.32,242.34,0.0,0.01,3
1659371528.25990605,74828790,0.0,1.02,0.0,0.56,242.32,242.34,0.0,0.01,3
1659371528.35985208,74928736,0.0,1.02,0.0,0.56,242.32,242.34,0.0,0.0,3
1659371528.45987821,75028762,0.0,1.02,0.0,0.56,242.32,242.34,0.0,0.0,3
1659371528.55987310,75128757,0.0,1.02,0.0,0.56,242.32,242.35,0.0,0.01,3
1659371528.65989900,75228783,0.0,1.02,0.0,0.56,242.32,242.35,0.0,0.01,3
1659371528.75986600,75328750,0.0,1.02,0.0,0.56,242.33,242.35,0.0,0.01,3
1659371528.85985899,75428743,0.0,1.02,0.0,0.56,242.33,242.36,0.0,0.01,3
1659371528.96030807,75529192,0.0,1.02,0.0,0.56,242.34,242.36,0.0,0.01,3
1659371529.05992413,75628808,0.0,1.01,0.0,0.56,242.35,242.37,0.0,0.01,3
1659371529.15994620,75728830,0.0,1.01,0.0,0.56,242.35,242.38,0.0,0.01,3
1659371529.25990319,75828787,0.0,1.01,0.0,0.56,242.36,242.38,0.0,0.01,3
1659371529.35985613,75928740,0.0,1.01,0.0,0.56,242.37,242.39000000000001,0.0,0.01,3
1659371529.45985818,76028742,0.0,1.01,0.0,0.56,242.37,242.39000000000001,0.0,0.01,3
1659371529.55990601,76128790,0.0,1.0,0.0,0.56,242.37,242.39000000000001,0.0,0.0,3
1659371529.65986013,76228744,0.0,1.0,0.0,0.55,242.37,242.39000000000001,0.0,0.01,3
1659371529.75989413,76328778,0.0,1.0,0.0,0.55,242.36,242.38,0.0,0.01,3
1659371529.85991907,76428803,0.0,1.0,0.0,0.55,242.36,242.38,0.0,0.0,3
1659371529.96028018,76529164,0.0,1.0,0.0,0.55,242.36,242.38,0.0,0.01,3
1659371530.05982399,76628708,0.0,1.0,0.0,0.55,242.36,242.38,0.0,0.01,3
1659371530.15990019,76728784,0.0,1.01,0.0,0.55,242.36,242.38,0.0,0.01,3
1659371530.25983500,76828719,0.0,1.01,0.0,0.55,242.35,242.37,0.0,0.01,3
1659371530.35984612,76928730,0.0,1.01,0.0,0.55,242.35,242.37,0.0,0.01,3
1659371530.45990014,77028784,0.0,1.01,0.0,0.55,242.34,242.37,0.0,0.01,3
1659371530.55988717,77128771,0.0,1.01,0.0,0.55,242.34,242.36,0.0,0.01,3
1659371530.65991020,77228794,0.0,1.01,0.0,0.55,242.33,242.35,0.0,0.01,3
1659371530.75993013,77328814,0.0,1.01,0.0,0.55,242.33,242.35,0.0,0.01,3
1659371530.85999417,77428878,0.0,1.01,0.0,0.55,242.32,242.34,0.0,0.01,3
1659371530.96018314,77529067,0.0,1.01,0.0,0.54,242.32,242.34,0.0,0.01,3
1659371531.05994916,77628833,0.0,1.01,0.0,0.55,242.31,242.33,0.0,0.01,3
1659371531.15988517,77728769,0.0,1.01,0.0,0.55,242.31,242.33,0.0,0.01,3
1659371531.25980806,77828692,0.0,1.01,0.0,0.55,242.31,242.33,0.0,0.0,3
1659371531.35979009,77928674,0.0,1.01,0.0,0.55,242.3,242.33,0.0,0.0,3
1659371531.45990801,78028792,0.0,1.01,0.0,0.55,242.3,242.32,0.0,0.0,3
1659371531.55987620,78128760,0.0,1.0,0.0,0.55,242.3,242.32,0.0,0.0,3
1659371531.65994310,78228827,0.0,1.0,0.0,0.55,242.3,242.32,0.0,0.01,3
1659371531.75993419,78328818,0.0,1.0,0.0,0.55,242.3,242.32,0.0,0.01,3
1659371531.85994101,78428825,0.0,1.0,0.0,0.55,242.3,242.32,0.0,0.01,3
1659371531.96023202,78529116,0.0,1.0,0.0,0.55,242.3,242.32,0.0,0.01,3
1659371532.05988717,78628771,0.0,1.0,0.0,0.55,242.29,242.31,0.0,0.01,3
1659371532.15984201,78728726,0.0,1.0,0.0,0.55,242.29,242.31,0.0,0.01,3
1659371532.25988317,78828767,0.0,1.0,0.0,0.55,242.28,242.3,0.0,0.01,3
1659371532.35985899,78928743,0.0,1.0,0.0,0.55,242.28,242.3,0.0,0.01,3
1659371532.45984316,79028727,0.0,1.0,0.0,0.55,242.27,242.29,0.0,0.01,3
1659371532.55987716,79128761,0.0,1.0,0.0,0.55,242.27,242.29,0.0,0.01,3
1659371532.65989614,79228780,0.0,1.0,0.0,0.55,242.27,242.29,0.0,0.01,3
1659371532.75986910,79328753,0.0,1.0,0.0,0.55,242.27,242.29,0.0,0.01,3
1659371532.85991812,79428802,0.0,1.0,0.0,0.56,242.26,242.28,0.0,0.01,3
1659371532.96024609,79529130,0.0,0.99,0.0,0.56,242.25,242.28,0.0,0.01,3
1659371533.05994010,79628824,0.0,0.99,0.0,0.56,242.25,242.27,0.0,0.01,3
1659371533.15998006,79728864,0.0,0.99,0.0,0.56,242.24,242.27,0.0,0.01,3
1659371533.25987101,79828755,0.0,0.99,0.0,0.56,242.24,242.26,0.0,0.01,3
1659371533.35981703,79928701,0.0,0.99,0.0,0.55,242.24,242.26,0.0,0.01,3
1659371533.45987606,80028760,0.0,0.99,0.0,0.55,242.24,242.26,0.0,0.01,3
1659371533.55989814,80128782,0.0,0.99,0.0,0.56,242.25,242.27,0.0,0.01,3
1659371533.65989709,80228781,0.0,0.99,0.0,0.55,242.25,242.27,0.0,0.01,3
1659371533.76000118,80328885,0.0,0.99,0.0,0.56,242.25,242.27,0.0,0.0,3
1659371533.85990119,80428785,0.0,0.99,0.0,0.56,242.25,242.27,0.0,0.01,3
1659371533.96025109,80529135,0.0,0.99,0.0,0.56,242.25,242.27,0.0,0.01,3
1659371534.05986619,80628750,0.0,0.99,0.0,0.56,242.24,242.27,0.0,0.01,3
1659371534.15988517,80728769,0.0,1.0,0.0,0.56,242.24,242.27,0.0,0.01,3
1659371534.25986814,80828752,0.0,1.0,0.0,0.56,242.25,242.27,0.0,0.01,3
1659371534.35986114,80928745,0.0,1.0,0.0,0.56,242.25,242.28,0.0,0.01,3
1659371534.45989704,81028781,0.0,1.0,0.0,0.56,242.26,242.28,0.0,0.01,3
1659371534.55990314,81128787,0.0,1.0,0.0,0.56,242.26,242.28,0.0,0.02,3
1659371534.65987301,81228757,0.0,1.0,0.0,0.56,242.26,242.28,0.0,0.02,3
1659371534.75983000,81328714,0.0,1.0,0.0,0.56,242.27,242.29,0.0,0.02,3
1659371534.85989809,81428782,0.0,1.01,0.0,0.56,242.28,242.3,0.0,0.02,3
1659371534.96027017,81529154,0.0,1.01,0.0,0.56,242.29,242.31,0.0,0.01,3
1659371535.05985522,81628739,0.0,1.01,0.0,0.56,242.3,242.32,0.0,0.01,3
1659371535.15984917,81728733,0.0,1.02,0.0,0.56,242.3,242.32,0.0,0.01,3
1659371535.25991106,81828795,0.0,1.02,0.0,0.56,242.3,242.33,0.0,0.01,3
1659371535.35992408,81928808,0.0,1.02,0.0,0.56,242.31,242.33,0.0,0.0,3
1659371535.45989513,82028779,0.0,1.03,0.0,0.5700000000000001,242.31,242.33,0.0,0.01,3
1659371535.55988812,82128772,0.0,1.02,0.0,0.56,242.31,242.33,0.0,0.01,3
1659371535.65984511,82228729,0.0,1.03,0.0,0.56,242.31,242.33,0.0,0.01,3
1659371535.75989199,82328776,0.0,1.03,0.0,0.56,242.31,242.34,0.0,0.01,3
1659371535.85992813,82428812,0.0,1.03,0.0,0.56,242.32,242.34,0.0,0.01,3
1659371535.96018720,82529071,0.0,1.03,0.0,0.56,242.32,242.34,0.0,0.01,3
1659371536.05988908,82628773,0.0,1.03,0.0,0.56,242.32,242.34,0.0,0.01,3
1659371536.15981913,82728703,0.0,1.03,0.0,0.56,242.32,242.34,0.0,0.01,3
1659371536.25992513,82828809,0.0,1.03,0.0,0.56,242.32,242.34,0.0,0.01,3
1659371536.35989308,82928777,0.0,1.03,0.0,0.56,242.32,242.34,0.0,0.01,3
1659371536.45990205,83028786,0.0,1.04,0.0,0.56,242.32,242.34,0.0,0.01,3
1659371536.55982709,83128711,0.0,1.03,0.0,0.55,242.32,242.34,0.0,0.01,3
1659371536.65988207,83228766,0.0,1.03,0.0,0.55,242.33,242.35,0.0,0.01,3
1659371536.75988007,83328764,0.0,1.04,0.0,0.56,242.33,242.35,0.0,0.01,3
1659371536.85992908,83428813,0.0,1.03,0.0,0.56,242.33,242.36,0.0,0.01,3
1659371536.96030617,83529190,0.0,1.03,0.0,0.55,242.34,242.36,0.0,0.01,3
1659371537.05985522,83628739,0.0,1.03,0.0,0.55,242.34,242.37,0.0,0.02,3
1659371537.15992212,83728806,0.0,1.04,0.0,0.55,242.35,242.37,0.0,0.02,3
1659371537.25989199,83828776,0.0,1.03,0.0,0.55,242.35,242.38,0.0,0.01,3
1659371537.35992122,83928805,0.0,1.04,0.0,0.55,242.35,242.38,0.0,0.01,3
1659371537.45986009,84028744,0.0,1.04,0.0,0.55,242.35,242.38,0.0,0.01,3
1659371537.55988216,84128766,0.0,1.04,0.0,0.55,242.35,242.38,0.0,0.01,3
1659371537.65990114,84228785,0.0,1.03,0.0,0.56,242.36,242.38,0.0,0.01,3
1659371537.75990105,84328785,0.0,1.04,0.0,0.56,242.36,242.38,0.0,0.01,3
1659371537.85985708,84428741,0.0,1.04,0.0,0.56,242.36,242.38,0.0,0.01,3
1659371537.96027517,84529159,0.0,1.03,0.0,0.56,242.36,242.38,0.0,0.01,3
1659371538.05995202,84628836,0.0,1.04,0.0,0.56,242.35,242.38,0.0,0.01,3
1659371538.15985513,84728739,0.0,1.04,0.0,0.5700000000000001,242.35,242.37,0.0,0.01,3
1659371538.25983906,84828723,0.0,1.03,0.0,0.56,242.35,242.37,0.0,0.01,3
1659371538.35984802,84928732,0.0,1.03,0.0,0.56,242.34,242.37,0.0,0.01,3
1659371538.45987320,85028757,0.0,1.03,0.0,0.56,242.34,242.36,0.0,0.0,3
1659371538.55988503,85128769,0.0,1.03,0.0,0.56,242.34,242.36,0.0,0.0,3
1659371538.65989017,85228774,0.0,1.04,0.0,0.56,242.34,242.36,0.0,0.0,3
1659371538.75984621,85328730,0.0,1.04,0.0,0.56,242.34,242.36,0.0,0.0,3
1659371538.85996819,85428852,0.0,1.04,0.0,0.56,242.34,242.37,0.0,0.0,3
1659371538.96023202,85529116,0.0,1.04,0.0,0.56,242.35,242.37,0.0,0.01,3
1659371539.05987501,85628759,0.0,1.04,0.0,0.56,242.35,242.37,0.0,0.01,3
1659371539.15987015,85728754,0.0,1.04,0.0,0.56,242.35,242.37,0.0,0.01,3
1659371539.25991011,85828794,0.0,1.03,0.0,0.56,242.34,242.37,0.0,0.0,3
1659371539.35982704,85928711,0.0,1.03,0.0,0.56,242.34,242.36,0.0,0.01,3
1659371539.45988321,86028767,0.0,1.03,0.0,0.56,242.34,242.36,0.0,0.01,3
1659371539.55988812,86128772,0.0,1.03,0.0,0.5700000000000001,242.34,242.36,0.0,0.01,3
1659371539.65987921,86228763,0.0,1.03,0.0,0.5700000000000001,242.34,242.36,0.0,0.01,3
1659371539.75985408,86328738,0.0,1.03,0.0,0.56,242.34,242.36,0.0,0.0,3
1659371539.86001110,86428895,0.0,1.03,0.0,0.56,242.34,242.36,0.0,0.01,3
1659371539.96025109,86529135,0.0,1.03,0.0,0.5700000000000001,242.35,242.37,0.0,0.01,3
1659371540.05996203,86628846,0.0,1.03,0.0,0.5700000000000001,242.35,242.37,0.0,0.01,3
1659371540.15990901,86728793,0.0,1.03,0.0,0.5700000000000001,242.35,242.38,0.0,0.01,3
1659371540.25982904,86828713,0.0,1.03,0.0,0.5700000000000001,242.36,242.38,0.0,0.01,3
1659371540.35988903,86928773,0.0,1.02,0.0,0.5700000000000001,242.37,242.39000000000001,0.0,0.01,3
1659371540.45986199,87028746,0.0,1.02,0.0,0.5700000000000001,242.37,242.39000000000001,0.0,0.01,3
1659371540.55989003,87128774,0.0,1.02,0.0,0.5700000000000001,242.38,242.4,0.0,0.0,3
1659371540.65985918,87228743,0.0,1.02,0.0,0.5700000000000001,242.38,242.4,0.0,0.01,3
1659371540.75994706,87328831,0.0,1.02,0.0,0.5700000000000001,242.38,242.41,0.0,0.01,3
1659371540.85992908,87428813,0.0,1.02,0.0,0.5700000000000001,242.39000000000001,242.41,0.0,0.01,3
1659371540.96018910,87529073,0.0,1.02,0.0,0.5700000000000001,242.39000000000001,242.41,0.0,0.01,3
1659371541.05987906,87628763,0.0,1.02,0.0,0.5700000000000001,242.39000000000001,242.42000000000002,0.0,0.01,3
