timestamp,TimeUS,DesRoll,Roll,DesPitch,Pitch,DesYaw,Yaw,ErrRP,ErrYaw,AEKF
1666958681.32041001,12514693,0.0,1.68,0.0,-0.24,359.99,0.0,1.0,1.0,0
1666958681.42049909,12614782,0.0,1.83,0.0,-0.26,73.82000000000001,73.82000000000001,0.64,0.8,0
1666958681.52035499,12714638,0.0,1.81,0.0,-0.26,74.13,74.13,0.64,0.65,0
1666958681.62054491,12814828,0.0,1.79,0.0,-0.26,74.51,74.51,0.51,0.53,0
1666958681.72036695,12914650,0.0,1.77,0.0,-0.26,74.63,74.63,0.51,0.43,0
1666958681.82038093,13014664,0.0,1.76,0.0,-0.26,74.78,74.78,0.41000000000000003,0.35000000000000003,0
1666958681.92043591,13114719,0.0,1.74,0.0,-0.26,74.97,74.97,0.41000000000000003,0.29,0
1666958682.02039099,13214674,0.0,1.72,0.0,-0.26,75.24,75.24,0.41000000000000003,0.24,0
1666958682.12044501,13314728,0.0,1.71,0.0,-0.25,75.39,75.39,0.32,0.2,0
1666958682.22086787,13415151,0.0,1.7,0.0,-0.25,75.51,75.51,0.26,0.16,0
1666958682.32050896,13514792,0.0,1.71,0.0,-0.25,75.38,75.38,0.21,0.13,0
1666958682.42059994,13614883,0.0,1.71,0.0,-0.26,75.47,75.47,0.21,0.11,0
1666958682.52063704,13714920,0.0,1.71,0.0,-0.26,75.63,75.63,0.16,0.09,0
1666958682.62066793,13814951,0.0,1.71,0.0,-0.27,75.89,75.89,0.16,0.08,0
1666958682.72056794,13914851,0.0,1.71,0.0,-0.26,75.89,75.89,0.13,0.07,0
1666958682.82053900,14014822,0.0,1.71,0.0,-0.26,76.11,76.11,0.1,0.06,0
1666958682.92061496,14114898,0.0,1.71,0.0,-0.25,76.16,76.16,0.08,0.05,0
1666958683.02063799,14214921,0.0,1.72,0.0,-0.25,76.12,76.12,0.08,0.04,0
1666958683.12070298,14314986,0.0,1.72,0.0,-0.24,76.19,76.19,0.06,0.03,0
1666958683.22153401,14415817,0.0,1.67,0.0,-0.29,0.0,0.0,0.06,0.03,3
1666958683.32111692,14515400,0.0,1.67,0.0,-0.29,0.0,0.0,0.05,0.02,3
1666958683.42104697,14615330,0.0,1.67,0.0,-0.29,0.0,0.0,0.04,0.03,3
1666958683.52093697,14715220,0.0,1.67,0.0,-0.29,0.0,0.0,0.03,0.02,3
1666958683.62107110,14815354,0.0,1.67,0.0,-0.29,0.0,0.0,0.03,0.02,3
1666958683.72094488,14915228,0.0,1.67,0.0,-0.29,0.0,0.0,0.02,0.02,3
1666958683.82103610,15015319,0.0,1.67,0.0,-0.29,0.0,0.0,0.02,0.01,3
1666958683.92090893,15115192,0.0,1.67,0.0,-0.29,0.0,0.0,0.02,0.01,3
1666958684.02094388,15215227,0.0,1.67,0.0,-0.29,0.0,0.0,0.02,0.01,3
1666958684.12098789,15315271,0.0,1.67,0.0,-0.29,0.0,0.0,0.01,0.01,3
1666958684.22122788,15415511,0.0,1.67,0.0,-0.29,0.0,0.0,0.01,0.01,3
1666958684.32095194,15515235,0.0,1.67,0.0,-0.28,0.01,0.01,0.01,0.01,3
1666958684.42102599,15615309,0.0,1.67,0.0,-0.28,0.01,0.01,0.01,0.01,3
1666958684.52093410,15715217,0.0,1.67,0.0,-0.27,0.01,0.01,0.01,0.01,3
1666958684.62107301,15815356,0.0,1.67,0.0,-0.27,0.01,0.01,0.0,0.01,3
1666958684.72091794,15915201,0.0,1.68,0.0,-0.26,0.01,0.01,0.0,0.01,3
1666958684.82096505,16015248,0.0,1.68,0.0,-0.26,0.01,0.01,0.0,0.01,3
1666958684.92095208,16115235,0.0,1.68,0.0,-0.25,0.01,0.01,0.0,0.01,3
1666958685.02093792,16215221,0.0,1.68,0.0,-0.24,76.34,76.34,0.0,0.01,3
1666958685.12096810,16315251,0.0,1.69,0.0,-0.24,76.4,76.4,0.0,0.01,3
1666958685.22134495,16415628,0.0,1.69,0.0,-0.25,76.52,76.52,0.0,0.0,3
1666958685.32099295,16515276,0.0,1.69,0.0,-0.25,76.66,76.66,0.0,0.01,3
1666958685.42102003,16615303,0.0,1.69,0.0,-0.25,76.75,76.75,0.0,0.01,3
1666958685.52089691,16715180,0.0,1.69,0.0,-0.25,76.78,76.78,0.0,0.0,3
1666958685.62108088,16815364,0.0,1.69,0.0,-0.25,76.76,76.76,0.0,0.0,3
1666958685.72094703,16915230,0.0,1.69,0.0,-0.25,76.72,76.72,0.0,0.0,3
1666958685.82098103,17015264,0.0,1.69,0.0,-0.25,76.68,76.68,0.0,0.0,3
1666958685.92101097,17115294,0.0,1.69,0.0,-0.24,76.66,76.66,0.0,0.0,3
1666958686.02096510,17215248,0.0,1.69,0.0,-0.24,76.66,76.66,0.0,0.0,3
1666958686.12108397,17315367,0.0,1.7,0.0,-0.24,76.67,76.67,0.0,0.0,3
1666958686.22125793,17415541,0.0,1.7,0.0,-0.24,76.69,76.69,0.0,0.0,3
1666958686.32093406,17515217,0.0,1.7,0.0,-0.24,76.71000000000001,76.71000000000001,0.0,0.0,3
1666958686.42100310,17615286,0.0,1.7,0.0,-0.24,76.73,76.73,0.0,0.0,3
1666958686.52095509,17715238,0.0,1.7,0.0,-0.24,76.76,76.76,0.0,0.0,3
1666958686.62102199,17815305,0.0,1.7,0.0,-0.23,76.78,76.79,0.0,0.01,3
1666958686.72092509,17915208,0.0,1.7,0.0,-0.23,76.8,76.8,0.0,0.0,3
1666958686.82097888,18015262,0.0,1.7,0.0,-0.23,76.81,76.81,0.0,0.01,3
1666958686.92088604,18115169,0.0,1.7,0.0,-0.23,76.82000000000001,76.82000000000001,0.0,0.01,3
1666958687.02101398,18215297,0.0,1.7,0.0,-0.22,76.86,76.86,0.0,0.01,3
1666958687.12102890,18315312,0.0,1.7,0.0,-0.22,76.91,76.92,0.0,0.01,3
1666958687.22123909,18415522,0.0,1.7,0.0,-0.22,76.96000000000001,76.97,0.0,0.01,3
1666958687.32088995,18515173,0.0,1.71,0.0,-0.21,77.01,77.01,0.0,0.01,3
1666958687.42108607,18615369,0.0,1.7,0.0,-0.21,77.03,77.04,0.0,0.01,3
1666958687.52093005,18715213,0.0,1.7,0.0,-0.2,77.06,77.06,0.0,0.01,3
1666958687.62103105,18815314,0.0,1.7,0.0,-0.2,77.09,77.09,0.0,0.01,3
1666958687.72095704,18915240,0.0,1.7,0.0,-0.2,77.11,77.12,0.0,0.01,3
1666958687.82099700,19015280,0.0,1.7,0.0,-0.2,77.12,77.12,0.0,0.01,3
1666958687.92099810,19115281,0.0,1.7,0.0,-0.19,77.11,77.11,0.0,0.01,3
1666958688.02099991,19215283,0.0,1.7,0.0,-0.19,77.09,77.09,0.0,0.01,3
1666958688.12100792,19315291,0.0,1.7,0.0,-0.19,77.07000000000001,77.07000000000001,0.0,0.01,3
1666958688.22126603,19415549,0.0,1.7,0.0,-0.19,77.06,77.06,0.0,0.01,3
1666958688.32092810,19515211,0.0,1.7,0.0,-0.19,77.04,77.04,0.0,0.01,3
1666958688.42098999,19615273,0.0,1.7,0.0,-0.19,77.02,77.02,0.0,0.01,3
1666958688.52087188,19715155,0.0,1.7,0.0,-0.19,77.01,77.01,0.0,0.01,3
1666958688.62104797,19815331,0.0,1.7,0.0,-0.19,76.99,76.99,0.0,0.01,3
1666958688.72098303,19915266,0.0,1.7,0.0,-0.19,76.98,76.98,0.0,0.01,3
1666958688.82107806,20015361,0.0,1.7,0.0,-0.19,76.97,76.97,0.0,0.01,3
1666958688.92090702,20115190,0.0,1.7,0.0,-0.19,76.95,76.95,0.0,0.01,3
1666958689.02093697,20215220,0.0,1.7,0.0,-0.19,76.94,76.94,0.0,0.01,3
1666958689.12096000,20315243,0.0,1.7,0.0,-0.19,76.93,76.93,0.0,0.01,3
1666958689.22129893,20415582,0.0,1.7,0.0,-0.19,76.92,76.92,0.0,0.01,3
1666958689.32095599,20515239,0.0,1.7,0.0,-0.19,76.91,76.91,0.0,0.01,3
1666958689.42105007,20615333,0.0,1.7,0.0,-0.19,76.89,76.89,0.0,0.01,3
1666958689.52096009,20715243,0.0,1.7,0.0,-0.19,76.89,76.89,0.0,0.01,3
1666958689.62104893,20815332,0.0,1.7,0.0,-0.19,76.89,76.89,0.0,0.01,3
1666958689.72096992,20915253,0.0,1.7,0.0,-0.19,76.89,76.89,0.0,0.01,3
1666958689.82092595,21015209,0.0,1.7,0.0,-0.19,76.89,76.89,0.0,0.01,3
1666958689.92092991,21115213,0.0,1.69,0.0,-0.19,76.9,76.9,0.0,0.01,3
1666958690.02089405,21215177,0.0,1.69,0.0,-0.2,76.9,76.9,0.0,0.01,3
1666958690.12104487,21315328,0.0,1.69,0.0,-0.2,76.9,76.9,0.0,0.01,3
1666958690.22120595,21415489,0.0,1.69,0.0,-0.2,76.9,76.9,0.0,0.01,3
1666958690.32086492,21515148,0.0,1.69,0.0,-0.2,76.91,76.92,0.0,0.0,3
1666958690.42103100,21615314,0.0,1.69,0.0,-0.2,76.93,76.93,0.0,0.0,3
1666958690.52088594,21715169,0.0,1.69,0.0,-0.2,76.94,76.94,0.0,0.0,3
1666958690.62115502,21815438,0.0,1.69,0.0,-0.2,76.95,76.95,0.0,0.01,3
1666958690.72092509,21915208,0.0,1.69,0.0,-0.2,76.98,76.98,0.0,0.01,3
1666958690.82095289,22015236,0.0,1.69,0.0,-0.2,77.0,77.0,0.0,0.01,3
1666958690.92099595,22115279,0.0,1.69,0.0,-0.2,77.03,77.03,0.0,0.01,3
1666958691.02096701,22215250,0.0,1.69,0.0,-0.2,77.05,77.05,0.0,0.0,3
1666958691.12100887,22315292,0.0,1.69,0.0,-0.2,77.07000000000001,77.07000000000001,0.0,0.0,3
1666958691.22123003,22415513,0.0,1.7,0.0,-0.21,77.09,77.09,0.0,0.0,3
1666958691.32088089,22515164,0.0,1.7,0.0,-0.21,77.09,77.09,0.0,0.0,3
1666958691.42100692,22615290,0.0,1.7,0.0,-0.21,77.10000000000001,77.10000000000001,0.0,0.01,3
1666958691.52098989,22715273,0.0,1.7,0.0,-0.21,77.10000000000001,77.10000000000001,0.0,0.01,3
1666958691.62104893,22815332,0.0,1.7,0.0,-0.21,77.09,77.09,0.0,0.01,3
1666958691.72088003,22915163,0.0,1.7,0.0,-0.21,77.07000000000001,77.07000000000001,0.0,0.01,3
1666958691.82092094,23015204,0.0,1.69,0.0,-0.22,77.05,77.05,0.0,0.01,3
1666958691.92096591,23115249,0.0,1.7,0.0,-0.22,77.04,77.04,0.0,0.01,3
1666958692.02094793,23215231,0.0,1.7,0.0,-0.22,77.03,77.03,0.0,0.01,3
1666958692.12100291,23315286,0.0,1.7,0.0,-0.22,77.01,77.01,0.0,0.01,3
1666958692.22127390,23415557,0.0,1.7,0.0,-0.22,76.99,76.99,0.0,0.01,3
1666958692.32091999,23515203,0.0,1.7,0.0,-0.22,76.98,76.98,0.0,0.01,3
1666958692.42113590,23615419,0.0,1.7,0.0,-0.22,76.96000000000001,76.96000000000001,0.0,0.01,3
1666958692.52095199,23715235,0.0,1.7,0.0,-0.23,76.93,76.93,0.0,0.01,3
1666958692.62106895,23815352,0.0,1.7,0.0,-0.23,76.91,76.91,0.0,0.01,3
1666958692.72090387,23915187,0.0,1.7,0.0,-0.23,76.9,76.9,0.0,0.01,3
1666958692.82093000,24015213,0.0,1.7,0.0,-0.23,76.9,76.9,0.0,0.01,3
1666958692.92094088,24115224,0.0,1.7,0.0,-0.23,76.91,76.91,0.0,0.01,3
1666958693.02094507,24215228,0.0,1.7,0.0,-0.23,76.92,76.92,0.0,0.01,3
1666958693.12097907,24315262,0.0,1.7,0.0,-0.23,76.92,76.92,0.0,0.01,3
1666958693.22119093,24415474,0.0,1.7,0.0,-0.23,76.93,76.93,0.0,0.01,3
1666958693.32108092,24515364,0.0,1.7,0.0,-0.23,76.93,76.93,0.0,0.01,3
1666958693.42096591,24615249,0.0,1.7,0.0,-0.23,76.94,76.94,0.0,0.01,3
1666958693.52101207,24715295,0.0,1.7,0.0,-0.23,76.95,76.95,0.0,0.01,3
1666958693.62103796,24815321,0.0,1.7,0.0,-0.23,76.97,76.97,0.0,0.01,3
1666958693.72093296,24915216,0.0,1.71,0.0,-0.23,77.01,77.01,0.0,0.01,3
1666958693.82100511,25015288,0.0,1.71,0.0,-0.23,77.06,77.06,0.0,0.02,3
1666958693.92100811,25115291,0.0,1.7,0.0,-0.23,77.09,77.10000000000001,0.0,0.01,3
1666958694.02092600,25215209,0.0,1.7,0.0,-0.23,77.11,77.11,0.0,0.01,3
1666958694.12105489,25315338,0.0,1.7,0.0,-0.23,77.12,77.12,0.0,0.01,3
1666958694.22136307,25415646,0.0,1.7,0.0,-0.23,77.10000000000001,77.10000000000001,0.0,0.01,3
1666958694.32097793,25515261,0.0,1.7,0.0,-0.23,77.08,77.08,0.0,0.01,3
1666958694.42101407,25615297,0.0,1.71,0.0,-0.23,77.05,77.05,0.0,0.01,3
1666958694.52094889,25715232,0.0,1.7,0.0,-0.23,77.02,77.02,0.0,0.01,3
1666958694.62102389,25815307,0.0,1.7,0.0,-0.23,77.0,77.0,0.0,0.01,3
1666958694.72092390,25915207,0.0,1.7,0.0,-0.23,76.98,76.98,0.0,0.01,3
1666958694.82093906,26015222,0.0,1.7,0.0,-0.23,76.99,76.99,0.0,0.01,3
1666958694.92086506,26115148,0.0,1.7,0.0,-0.23,77.0,77.0,0.0,0.01,3
1666958695.02087498,26215158,0.0,1.71,0.0,-0.23,77.02,77.02,0.0,0.01,3
1666958695.12107897,26315362,0.0,1.71,0.0,-0.23,77.03,77.03,0.0,0.01,3
1666958695.22123408,26415517,0.0,1.71,0.0,-0.22,77.04,77.04,0.0,0.01,3
1666958695.32093096,26515214,0.0,1.71,0.0,-0.22,77.04,77.04,0.0,0.01,3
1666958695.42105198,26615335,0.0,1.71,0.0,-0.22,77.04,77.04,0.0,0.0,3
1666958695.52093196,26715215,0.0,1.71,0.0,-0.22,77.04,77.04,0.0,0.01,3
1666958695.62106204,26815345,0.0,1.71,0.0,-0.22,77.04,77.04,0.0,0.01,3
1666958695.72091293,26915196,0.0,1.71,0.0,-0.22,77.02,77.02,0.0,0.01,3
1666958695.82106996,27015353,0.0,1.71,0.0,-0.22,77.0,77.0,0.0,0.01,3
1666958695.92096496,27115248,0.0,1.71,0.0,-0.22,77.0,77.0,0.0,0.01,3
1666958696.02094793,27215231,0.0,1.71,0.0,-0.22,77.0,77.01,0.0,0.01,3
1666958696.12100005,27315283,0.0,1.71,0.0,-0.22,77.01,77.01,0.0,0.01,3
1666958696.22147393,27415757,0.0,1.71,0.0,-0.22,77.01,77.01,0.0,0.01,3
1666958696.32086992,27515153,0.0,1.71,0.0,-0.22,77.0,77.0,0.0,0.01,3
1666958696.42108488,27615368,0.0,1.71,0.0,-0.22,76.98,76.98,0.0,0.02,3
1666958696.52086592,27715149,0.0,1.72,0.0,-0.22,76.96000000000001,76.97,0.0,0.02,3
1666958696.62108493,27815368,0.0,1.72,0.0,-0.22,76.98,76.98,0.0,0.02,3
1666958696.72088790,27915171,0.0,1.72,0.0,-0.22,77.01,77.01,0.0,0.02,3
1666958696.82092309,28015206,0.0,1.72,0.0,-0.21,77.05,77.05,0.0,0.02,3
1666958696.92099905,28115282,0.0,1.72,0.0,-0.21,77.09,77.10000000000001,0.0,0.02,3
1666958697.02094293,28215226,0.0,1.72,0.0,-0.21,77.12,77.13,0.0,0.02,3
1666958697.12103200,28315315,0.0,1.72,0.0,-0.21,77.15,77.15,0.0,0.01,3
1666958697.22130203,28415585,0.0,1.72,0.0,-0.21,77.17,77.17,0.0,0.01,3
1666958697.32094598,28515229,0.0,1.72,0.0,-0.21,77.19,77.2,0.0,0.01,3
1666958697.42104101,28615324,0.0,1.72,0.0,-0.21,77.21000000000001,77.21000000000001,0.0,0.01,3
1666958697.52090096,28715184,0.0,1.72,0.0,-0.21,77.23,77.23,0.0,0.01,3
1666958697.62102795,28815311,0.0,1.72,0.0,-0.21,77.23,77.23,0.0,0.01,3
1666958697.72096205,28915245,0.0,1.72,0.0,-0.21,77.22,77.22,0.0,0.01,3
1666958697.82098794,29015271,0.0,1.72,0.0,-0.21,77.21000000000001,77.21000000000001,0.0,0.01,3
1666958697.92091489,29115198,0.0,1.72,0.0,-0.21,77.18,77.18,0.0,0.01,3
1666958698.02093291,29215216,0.0,1.72,0.0,-0.21,77.15,77.15,0.0,0.01,3
1666958698.12098289,29315266,0.0,1.72,0.0,-0.21,77.13,77.13,0.0,0.01,3
1666958698.22127795,29415561,0.0,1.72,0.0,-0.21,77.10000000000001,77.10000000000001,0.0,0.01,3
1666958698.32089591,29515179,0.0,1.72,0.0,-0.21,77.08,77.08,0.0,0.02,3
1666958698.42092705,29615210,0.0,1.72,0.0,-0.21,77.08,77.08,0.0,0.01,3
1666958698.52102089,29715304,0.0,1.72,0.0,-0.21,77.09,77.09,0.0,0.01,3
1666958698.62107801,29815361,0.0,1.72,0.0,-0.21,77.11,77.11,0.0,0.01,3
1666958698.72103691,29915320,0.0,1.72,0.0,-0.21,77.12,77.13,0.0,0.01,3
1666958698.82105088,30015334,0.0,1.72,0.0,-0.21,77.13,77.13,0.0,0.01,3
1666958698.92091393,30115197,0.0,1.72,0.0,-0.2,77.13,77.14,0.0,0.01,3
1666958699.02096510,30215248,0.0,1.72,0.0,-0.2,77.13,77.14,0.0,0.01,3
1666958699.12102008,30315303,0.0,1.72,0.0,-0.2,77.14,77.14,0.0,0.01,3
1666958699.22123504,30415518,0.0,1.72,0.0,-0.2,77.14,77.14,0.0,0.0,3
1666958699.32094908,30515232,0.0,1.72,0.0,-0.2,77.15,77.15,0.0,0.0,3
1666958699.42101908,30615302,0.0,1.72,0.0,-0.2,77.15,77.15,0.0,0.0,3
1666958699.52087998,30715163,0.0,1.72,0.0,-0.2,77.15,77.15,0.0,0.0,3
1666958699.62112188,30815405,0.0,1.72,0.0,-0.2,77.16,77.16,0.0,0.0,3
1666958699.72084904,30915132,0.0,1.72,0.0,-0.2,77.17,77.17,0.0,0.01,3
1666958699.82088995,31015173,0.0,1.72,0.0,-0.2,77.17,77.18,0.0,0.01,3
1666958699.92090011,31115183,0.0,1.72,0.0,-0.2,77.17,77.18,0.0,0.0,3
1666958700.02100801,31215291,0.0,1.72,0.0,-0.2,77.18,77.18,0.0,0.0,3
1666958700.12105107,31315334,0.0,1.72,0.0,-0.2,77.18,77.18,0.0,0.01,3
1666958700.22130990,31415593,0.0,1.72,0.0,-0.2,77.18,77.18,0.0,0.0,3
1666958700.32099199,31515275,0.0,1.72,0.0,-0.2,77.17,77.17,0.0,0.01,3
1666958700.42098594,31615269,0.0,1.72,0.0,-0.2,77.18,77.18,0.0,0.01,3
1666958700.52099609,31715279,0.0,1.72,0.0,-0.2,77.19,77.19,0.0,0.0,3
1666958700.62130404,31815587,0.0,1.71,0.0,-0.21,76.69,77.2,0.0,0.01,3
1666958700.72088695,31915170,0.0,1.71,0.0,-0.21,77.21000000000001,77.21000000000001,0.0,0.01,3
1666958700.82096410,32015247,0.0,1.72,0.0,-0.21,77.23,77.23,0.0,0.0,3
1666958700.92105007,32115333,0.0,1.71,0.0,-0.21,77.24,77.24,0.0,0.0,3
1666958701.02101493,32215298,0.0,1.71,0.0,-0.21,77.24,77.24,0.0,0.01,3
1666958701.12104487,32315328,0.0,1.71,0.0,-0.21,77.24,77.24,0.0,0.01,3
1666958701.22118688,32415470,0.0,1.71,0.0,-0.21,77.23,77.23,0.0,0.01,3
1666958701.32095504,32515238,0.0,1.71,0.0,-0.21,77.21000000000001,77.21000000000001,0.0,0.01,3
1666958701.42106605,32615349,0.0,1.71,0.0,-0.21,77.19,77.19,0.0,0.01,3
1666958701.52090502,32715188,0.0,1.71,0.0,-0.21,77.17,77.17,0.0,0.01,3
1666958701.62103009,32815313,0.0,1.71,0.0,-0.21,77.16,77.16,0.0,0.01,3
1666958701.72093296,32915216,0.0,1.71,0.0,-0.21,77.16,77.16,0.0,0.01,3
1666958701.82102990,33015313,0.0,1.71,0.0,-0.21,77.17,77.17,0.0,0.01,3
1666958701.92093801,33115221,0.0,1.71,0.0,-0.21,77.17,77.17,0.0,0.01,3
1666958702.02094102,33215224,0.0,1.71,0.0,-0.21,77.17,77.17,0.0,0.01,3
1666958702.12111306,33315396,0.0,1.72,0.0,-0.21,77.17,77.17,0.0,0.02,3
1666958702.22127604,33415559,0.0,1.72,0.0,-0.21,77.18,77.18,0.0,0.02,3
1666958702.32100105,33515284,0.0,1.72,0.0,-0.21,77.2,77.2,0.0,0.01,3
1666958702.42096901,33615252,0.0,1.72,0.0,-0.21,77.22,77.22,0.0,0.02,3
1666958702.52093410,33715217,0.0,1.72,0.0,-0.21,77.24,77.24,0.0,0.01,3
1666958702.62102389,33815307,0.0,1.72,0.0,-0.21,77.24,77.24,0.0,0.01,3
1666958702.72095203,33915235,0.0,1.72,0.0,-0.21,77.24,77.24,0.0,0.01,3
1666958702.82087207,34015155,0.0,1.72,0.0,-0.21,77.24,77.24,0.0,0.01,3
1666958702.92088890,34115172,0.0,1.72,0.0,-0.21,77.24,77.24,0.0,0.01,3
1666958703.02090597,34215189,0.0,1.72,0.0,-0.2,77.25,77.26,0.0,0.01,3
1666958703.12104392,34315327,0.0,1.72,0.0,-0.2,77.27,77.27,0.0,0.01,3
1666958703.22139001,34415673,0.0,1.72,0.0,-0.2,77.27,77.27,0.0,0.01,3
1666958703.32091904,34515202,0.0,1.72,0.0,-0.2,77.26,77.26,0.0,0.01,3
1666958703.42102408,34615307,0.0,1.72,0.0,-0.2,77.25,77.25,0.0,0.01,3
1666958703.52091599,34715199,0.0,1.72,0.0,-0.2,77.24,77.24,0.0,0.01,3
1666958703.62106991,34815353,0.0,1.72,0.0,-0.21,77.22,77.22,0.0,0.02,3
1666958703.72089291,34915176,0.0,1.72,0.0,-0.2,77.21000000000001,77.21000000000001,0.0,0.01,3
1666958703.82089496,35015178,0.0,1.72,0.0,-0.21,77.18,77.18,0.0,0.01,3
1666958703.92091489,35115198,0.0,1.72,0.0,-0.2,77.16,77.16,0.0,0.01,3
1666958704.02095389,35215237,0.0,1.72,0.0,-0.21,77.14,77.14,0.0,0.01,3
1666958704.12107706,35315360,0.0,1.72,0.0,-0.21,77.12,77.12,0.0,0.01,3
1666958704.22132397,35415607,0.0,1.72,0.0,-0.2,77.11,77.11,0.0,0.01,3
1666958704.32105207,35515335,0.0,1.73,0.0,-0.21,77.10000000000001,77.10000000000001,0.0,0.01,3
1666958704.42089510,35615178,0.0,1.73,0.0,-0.2,77.09,77.09,0.0,0.01,3
1666958704.52093697,35715220,0.0,1.73,0.0,-0.2,77.08,77.08,0.0,0.01,3
1666958704.62102699,35815310,0.0,1.73,0.0,-0.2,77.07000000000001,77.07000000000001,0.0,0.01,3
1666958704.72088695,35915170,0.0,1.73,0.0,-0.2,77.06,77.06,0.0,0.01,3
1666958704.82105494,36015338,0.0,1.73,0.0,-0.2,77.04,77.04,0.0,0.01,3
1666958704.92094207,36115225,0.0,1.73,0.0,-0.2,77.03,77.03,0.0,0.01,3
1666958705.02107000,36215353,0.0,1.73,0.0,-0.2,77.01,77.01,0.0,0.01,3
1666958705.12104607,36315329,0.0,1.73,0.0,-0.2,77.01,77.01,0.0,0.01,3
1666958705.22127604,36415559,0.0,1.73,0.0,-0.2,77.0,77.0,0.0,0.01,3
1666958705.32087398,36515157,0.0,1.73,0.0,-0.2,76.99,77.0,0.0,0.01,3
1666958705.42100000,36615283,0.0,1.73,0.0,-0.2,76.99,76.99,0.0,0.01,3
1666958705.52095604,36715239,0.0,1.73,0.0,-0.2,76.97,76.98,0.0,0.01,3
1666958705.62107301,36815356,0.0,1.73,0.0,-0.2,76.96000000000001,76.96000000000001,0.0,0.01,3
1666958705.72085690,36915140,0.0,1.73,0.0,-0.2,76.95,76.95,0.0,0.01,3
1666958705.82106304,37015346,0.0,1.73,0.0,-0.2,76.93,76.93,0.0,0.01,3
1666958705.92098188,37115265,0.0,1.73,0.0,-0.2,76.92,76.92,0.0,0.01,3
1666958706.02090907,37215192,0.0,1.73,0.0,-0.2,76.9,76.9,0.0,0.01,3
1666958706.12103510,37315318,0.0,1.73,0.0,-0.2,76.9,76.9,0.0,0.01,3
1666958706.22125697,37415540,0.0,1.73,0.0,-0.2,76.9,76.9,0.0,0.01,3
1666958706.32103896,37515322,0.0,1.73,0.0,-0.2,76.92,76.92,0.0,0.01,3
1666958706.42104888,37615332,0.0,1.73,0.0,-0.2,76.93,76.94,0.0,0.01,3
1666958706.52103710,37715320,0.0,1.73,0.0,-0.2,76.95,76.95,0.0,0.01,3
1666958706.62104988,37815333,0.0,1.73,0.0,-0.2,76.96000000000001,76.96000000000001,0.0,0.01,3
1666958706.72092605,37915209,0.0,1.73,0.0,-0.2,76.96000000000001,76.97,0.0,0.02,3
1666958706.82100511,38015288,0.0,1.73,0.0,-0.2,76.98,76.98,0.0,0.01,3
1666958706.92098689,38115270,0.0,1.73,0.0,-0.2,77.0,77.0,0.0,0.01,3
1666958707.02096009,38215243,0.0,1.73,0.0,-0.2,77.02,77.02,0.0,0.02,3
1666958707.12103295,38315316,0.0,1.73,0.0,-0.2,77.04,77.04,0.0,0.01,3
1666958707.22124600,38415529,0.0,1.73,0.0,-0.2,77.06,77.06,0.0,0.01,3
1666958707.32102394,38515307,0.0,1.73,0.0,-0.2,77.08,77.08,0.0,0.01,3
1666958707.42096710,38615250,0.0,1.73,0.0,-0.19,77.09,77.09,0.0,0.01,3
1666958707.52087188,38715155,0.0,1.73,0.0,-0.19,77.09,77.09,0.0,0.01,3
1666958707.62102890,38815312,0.0,1.73,0.0,-0.19,77.09,77.09,0.0,0.01,3
1666958707.72093511,38915218,0.0,1.73,0.0,-0.19,77.09,77.09,0.0,0.01,3
1666958707.82093310,39015216,0.0,1.73,0.0,-0.19,77.08,77.08,0.0,0.01,3
1666958707.92092109,39115204,0.0,1.73,0.0,-0.19,77.07000000000001,77.07000000000001,0.0,0.01,3
1666958708.02090502,39215188,0.0,1.73,0.0,-0.19,77.06,77.06,0.0,0.01,3
1666958708.12106991,39315353,0.0,1.73,0.0,-0.19,77.05,77.05,0.0,0.01,3
1666958708.22129989,39415583,0.0,1.73,0.0,-0.19,77.05,77.05,0.0,0.01,3
1666958708.32093501,39515218,0.0,1.74,0.0,-0.18,77.06,77.06,0.0,0.01,3
1666958708.42102790,39615311,0.0,1.74,0.0,-0.18,77.07000000000001,77.07000000000001,0.0,0.01,3
1666958708.52090192,39715185,0.0,1.74,0.0,-0.18,77.08,77.08,0.0,0.01,3
1666958708.62111092,39815394,0.0,1.74,0.0,-0.18,77.09,77.09,0.0,0.01,3
1666958708.72091889,39915202,0.0,1.74,0.0,-0.18,77.11,77.11,0.0,0.01,3
1666958708.82088304,40015166,0.0,1.74,0.0,-0.18,77.13,77.13,0.0,0.01,3
1666958708.92102504,40115308,0.0,1.74,0.0,-0.18,77.14,77.15,0.0,0.01,3
1666958709.02106094,40215344,0.0,1.74,0.0,-0.18,77.15,77.15,0.0,0.01,3
1666958709.12102199,40315305,0.0,1.74,0.0,-0.18,77.16,77.16,0.0,0.01,3
1666958709.22120404,40415487,0.0,1.74,0.0,-0.18,77.17,77.17,0.0,0.01,3
1666958709.32091999,40515203,0.0,1.74,0.0,-0.18,77.19,77.19,0.0,0.01,3
1666958709.42096090,40615244,0.0,1.74,0.0,-0.18,77.2,77.2,0.0,0.01,3
1666958709.52102804,40715311,0.0,1.74,0.0,-0.18,77.22,77.22,0.0,0.01,3
1666958709.62106895,40815352,0.0,1.74,0.0,-0.18,77.24,77.24,0.0,0.01,3
1666958709.72103405,40915317,0.0,1.74,0.0,-0.18,77.26,77.26,0.0,0.01,3
1666958709.82097006,41015253,0.0,1.74,0.0,-0.18,77.27,77.27,0.0,0.01,3
1666958709.92095089,41115234,0.0,1.74,0.0,-0.18,77.28,77.28,0.0,0.0,3
1666958710.02093601,41215219,0.0,1.74,0.0,-0.18,77.29,77.29,0.0,0.01,3
1666958710.12100506,41315288,0.0,1.74,0.0,-0.18,77.3,77.3,0.0,0.01,3
1666958710.22124910,41415532,0.0,1.74,0.0,-0.18,77.31,77.31,0.0,0.01,3
1666958710.32087803,41515161,0.0,1.74,0.0,-0.18,77.32000000000001,77.32000000000001,0.0,0.01,3
1666958710.42104888,41615332,0.0,1.74,0.0,-0.18,77.33,77.33,0.0,0.01,3
1666958710.52106690,41715350,0.0,1.73,0.0,-0.18,77.35000000000001,77.35000000000001,0.0,0.01,3
1666958710.62098002,41815263,0.0,1.73,0.0,-0.18,77.37,77.37,0.0,0.01,3
1666958710.72089195,41915175,0.0,1.73,0.0,-0.18,77.39,77.39,0.0,0.01,3
1666958710.82089710,42015180,0.0,1.73,0.0,-0.18,77.4,77.4,0.0,0.01,3
1666958710.92092991,42115213,0.0,1.73,0.0,-0.19,77.41,77.41,0.0,0.01,3
1666958711.02093410,42215217,0.0,1.73,0.0,-0.19,77.42,77.42,0.0,0.01,3
1666958711.12109494,42315378,0.0,1.73,0.0,-0.19,77.43,77.43,0.0,0.01,3
1666958711.22130609,42415589,0.0,1.73,0.0,-0.19,77.44,77.45,0.0,0.01,3
1666958711.32098293,42515266,0.0,1.73,0.0,-0.19,77.46000000000001,77.46000000000001,0.0,0.01,3
1666958711.42096996,42615253,0.0,1.73,0.0,-0.19,77.47,77.47,0.0,0.01,3
1666958711.52095890,42715242,0.0,1.73,0.0,-0.19,77.47,77.47,0.0,0.01,3
1666958711.62099504,42815278,0.0,1.73,0.0,-0.19,77.47,77.48,0.0,0.01,3
1666958711.72090006,42915183,0.0,1.73,0.0,-0.19,77.48,77.48,0.0,0.01,3
1666958711.82097197,43015255,0.0,1.73,0.0,-0.18,77.47,77.47,0.0,0.01,3
1666958711.92090702,43115190,0.0,1.73,0.0,-0.19,77.47,77.47,0.0,0.01,3
1666958712.02090597,43215189,0.0,1.73,0.0,-0.19,77.46000000000001,77.46000000000001,0.0,0.01,3
1666958712.12111902,43315402,0.0,1.72,0.0,-0.19,77.46000000000001,77.46000000000001,0.0,0.01,3
1666958712.22129893,43415582,0.0,1.73,0.0,-0.19,77.46000000000001,77.46000000000001,0.0,0.01,3
1666958712.32088804,43515171,0.0,1.72,0.0,-0.19,77.47,77.47,0.0,0.01,3
1666958712.42094088,43615224,0.0,1.72,0.0,-0.19,77.49,77.49,0.0,0.01,3
1666958712.52093291,43715216,0.0,1.72,0.0,-0.18,77.5,77.5,0.0,0.01,3
1666958712.62109089,43815374,0.0,1.72,0.0,-0.18,77.51,77.52,0.0,0.01,3
1666958712.72092295,43915206,0.0,1.72,0.0,-0.19,77.52,77.52,0.0,0.0,3
1666958712.82100987,44015293,0.0,1.73,0.0,-0.18,77.53,77.53,0.0,0.01,3
1666958712.92107010,44115353,0.0,1.73,0.0,-0.18,77.54,77.54,0.0,0.01,3
1666958713.02097106,44215254,0.0,1.72,0.0,-0.18,77.54,77.54,0.0,0.01,3
1666958713.12106800,44315351,0.0,1.73,0.0,-0.18,77.55,77.55,0.0,0.01,3
1666958713.22133088,44415614,0.0,1.73,0.0,-0.18,77.56,77.56,0.0,0.0,3
1666958713.32095194,44515235,0.0,1.73,0.0,-0.18,77.56,77.57000000000001,0.0,0.01,3
1666958713.42095590,44615239,0.0,1.72,0.0,-0.18,77.56,77.56,0.0,0.01,3
1666958713.52089310,44715176,0.0,1.73,0.0,-0.18,77.56,77.56,0.0,0.01,3
1666958713.62104487,44815328,0.0,1.73,0.0,-0.18,77.56,77.56,0.0,0.01,3
1666958713.72083592,44915119,0.0,1.73,0.0,-0.18,77.57000000000001,77.57000000000001,0.0,0.01,3
1666958713.82098198,45015265,0.0,1.73,0.0,-0.18,77.57000000000001,77.57000000000001,0.0,0.01,3
1666958713.92091393,45115197,0.0,1.73,0.0,-0.18,77.57000000000001,77.57000000000001,0.0,0.01,3
1666958714.02100611,45215289,0.0,1.73,0.0,-0.18,77.57000000000001,77.57000000000001,0.0,0.01,3
1666958714.12101388,45315297,0.0,1.72,0.0,-0.18,77.57000000000001,77.58,0.0,0.0,3
1666958714.22129703,45415580,0.0,1.72,0.0,-0.18,77.58,77.58,0.0,0.0,3
1666958714.32094288,45515226,0.0,1.72,0.0,-0.18,77.58,77.58,0.0,0.01,3
1666958714.42103696,45615320,0.0,1.73,0.0,-0.18,77.58,77.59,0.0,0.01,3
1666958714.52095294,45715236,0.0,1.72,0.0,-0.18,77.59,77.59,0.0,0.01,3
1666958714.62104988,45815333,0.0,1.73,0.0,-0.18,77.60000000000001,77.60000000000001,0.0,0.01,3
1666958714.72094107,45915224,0.0,1.72,0.0,-0.18,77.60000000000001,77.60000000000001,0.0,0.01,3
1666958714.82097101,46015254,0.0,1.72,0.0,-0.18,77.61,77.61,0.0,0.01,3
1666958714.92100906,46115292,0.0,1.72,0.0,-0.19,77.61,77.61,0.0,0.01,3
1666958715.02097392,46215257,0.0,1.73,0.0,-0.18,77.62,77.62,0.0,0.01,3
1666958715.12103891,46315322,0.0,1.73,0.0,-0.18,77.63,77.63,0.0,0.01,3
1666958715.22120905,46415492,0.0,1.73,0.0,-0.19,77.65,77.65,0.0,0.01,3
1666958715.32084703,46515130,0.0,1.73,0.0,-0.18,77.66,77.66,0.0,0.01,3
1666958715.42098808,46615271,0.0,1.73,0.0,-0.19,77.67,77.67,0.0,0.02,3
1666958715.52090192,46715185,0.0,1.73,0.0,-0.19,77.68,77.68,0.0,0.01,3
1666958715.62101889,46815302,0.0,1.73,0.0,-0.19,77.7,77.7,0.0,0.01,3
1666958715.72091603,46915199,0.0,1.73,0.0,-0.19,77.71000000000001,77.71000000000001,0.0,0.01,3
1666958715.82104802,47015331,0.0,1.73,0.0,-0.19,77.72,77.72,0.0,0.01,3
1666958715.92095494,47115238,0.0,1.73,0.0,-0.19,77.72,77.73,0.0,0.01,3
1666958716.02096295,47215246,0.0,1.73,0.0,-0.19,77.73,77.73,0.0,0.01,3
1666958716.12104988,47315333,0.0,1.73,0.0,-0.19,77.72,77.72,0.0,0.01,3
1666958716.22131610,47415599,0.0,1.73,0.0,-0.19,77.72,77.72,0.0,0.01,3
1666958716.32090592,47515189,0.0,1.73,0.0,-0.19,77.72,77.72,0.0,0.01,3
1666958716.42107296,47615356,0.0,1.73,0.0,-0.19,77.71000000000001,77.71000000000001,0.0,0.01,3
1666958716.52094388,47715227,0.0,1.73,0.0,-0.19,77.71000000000001,77.71000000000001,0.0,0.01,3
1666958716.62100101,47815284,0.0,1.73,0.0,-0.19,77.71000000000001,77.71000000000001,0.0,0.01,3
1666958716.72102594,47915309,0.0,1.73,0.0,-0.19,77.71000000000001,77.71000000000001,0.0,0.0,3
1666958716.82105088,48015334,0.0,1.73,0.0,-0.19,77.71000000000001,77.71000000000001,0.0,0.0,3
1666958716.92087889,48115162,0.0,1.73,0.0,-0.18,77.71000000000001,77.71000000000001,0.0,0.0,3
1666958717.02092409,48215207,0.0,1.73,0.0,-0.18,77.71000000000001,77.71000000000001,0.0,0.01,3
1666958717.12096596,48315249,0.0,1.73,0.0,-0.18,77.71000000000001,77.71000000000001,0.0,0.01,3
1666958717.22120905,48415492,0.0,1.73,0.0,-0.18,77.71000000000001,77.71000000000001,0.0,0.01,3
1666958717.32092810,48515211,0.0,1.73,0.0,-0.18,77.72,77.72,0.0,0.0,3
1666958717.42100000,48615283,0.0,1.73,0.0,-0.18,77.72,77.72,0.0,0.01,3
1666958717.52093291,48715216,0.0,1.73,0.0,-0.18,77.73,77.73,0.0,0.01,3
1666958717.62112308,48815406,0.0,1.73,0.0,-0.19,77.73,77.73,0.0,0.01,3
1666958717.72093892,48915222,0.0,1.73,0.0,-0.19,77.73,77.73,0.0,0.01,3
1666958717.82095408,49015237,0.0,1.73,0.0,-0.19,77.73,77.73,0.0,0.01,3
1666958717.92089796,49115181,0.0,1.73,0.0,-0.19,77.74,77.74,0.0,0.01,3
1666958718.02100301,49215286,0.0,1.73,0.0,-0.18,77.74,77.74,0.0,0.0,3
1666958718.12099791,49315281,0.0,1.73,0.0,-0.18,77.74,77.75,0.0,0.0,3
1666958718.22121906,49415502,0.0,1.73,0.0,-0.18,77.75,77.75,0.0,0.01,3
1666958718.32091188,49515195,0.0,1.73,0.0,-0.18,77.75,77.75,0.0,0.01,3
1666958718.42098188,49615265,0.0,1.73,0.0,-0.18,77.75,77.75,0.0,0.02,3
1666958718.52103901,49715322,0.0,1.73,0.0,-0.18,77.73,77.73,0.0,0.01,3
1666958718.62102795,49815311,0.0,1.74,0.0,-0.18,77.72,77.72,0.0,0.02,3
1666958718.72087407,49915157,0.0,1.73,0.0,-0.18,77.7,77.7,0.0,0.01,3
1666958718.82092690,50015210,0.0,1.74,0.0,-0.18,77.69,77.69,0.0,0.01,3
1666958718.92101693,50115300,0.0,1.74,0.0,-0.18,77.68,77.68,0.0,0.01,3
1666958719.02101707,50215300,0.0,1.74,0.0,-0.18,77.68,77.68,0.0,0.01,3
1666958719.12105894,50315342,0.0,1.74,0.0,-0.18,77.68,77.68,0.0,0.01,3
1666958719.22127008,50415553,0.0,1.73,0.0,-0.18,77.68,77.68,0.0,0.01,3
1666958719.32094097,50515224,0.0,1.73,0.0,-0.18,77.68,77.68,0.0,0.01,3
1666958719.42101598,50615299,0.0,1.73,0.0,-0.17,77.68,77.68,0.0,0.01,3
1666958719.52093887,50715222,0.0,1.73,0.0,-0.18,77.68,77.68,0.0,0.01,3
1666958719.62105393,50815337,0.0,1.73,0.0,-0.18,77.68,77.68,0.0,0.01,3
1666958719.72090006,50915183,0.0,1.73,0.0,-0.18,77.68,77.68,0.0,0.01,3
1666958719.82087994,51015163,0.0,1.73,0.0,-0.18,77.68,77.68,0.0,0.01,3
1666958719.92092204,51115205,0.0,1.73,0.0,-0.18,77.68,77.68,0.0,0.01,3
1666958720.02087808,51215161,0.0,1.73,0.0,-0.18,77.68,77.68,0.0,0.0,3
1666958720.12101889,51315302,0.0,1.73,0.0,-0.18,77.67,77.68,0.0,0.0,3
1666958720.22121501,51415498,0.0,1.73,0.0,-0.18,77.67,77.67,0.0,0.01,3
1666958720.32093501,51515218,0.0,1.73,0.0,-0.18,77.67,77.67,0.0,0.01,3
1666958720.42103195,51615315,0.0,1.73,0.0,-0.18,77.66,77.66,0.0,0.02,3
1666958720.52099705,51715280,0.0,1.73,0.0,-0.18,77.65,77.65,0.0,0.02,3
1666958720.62122893,51815512,0.0,1.73,0.0,-0.18,77.63,77.63,0.0,0.02,3
1666958720.72095394,51915237,0.0,1.73,0.0,-0.18,77.62,77.62,0.0,0.01,3
1666958720.82097793,52015261,0.0,1.73,0.0,-0.18,77.62,77.62,0.0,0.02,3
1666958720.92097688,52115260,0.0,1.73,0.0,-0.18,77.62,77.62,0.0,0.02,3
1666958721.02100611,52215289,0.0,1.73,0.0,-0.18,77.61,77.61,0.0,0.02,3
1666958721.12101507,52315298,0.0,1.73,0.0,-0.18,77.61,77.61,0.0,0.01,3
1666958721.22128105,52415564,0.0,1.73,0.0,-0.18,77.60000000000001,77.60000000000001,0.0,0.02,3
1666958721.32086110,52515144,0.0,1.73,0.0,-0.17,77.60000000000001,77.60000000000001,0.0,0.01,3
1666958721.42098594,52615269,0.0,1.73,0.0,-0.17,77.60000000000001,77.60000000000001,0.0,0.01,3
1666958721.52085400,52715137,0.0,1.74,0.0,-0.17,77.60000000000001,77.60000000000001,0.0,0.01,3
1666958721.62109494,52815378,0.0,1.74,0.0,-0.18,77.60000000000001,77.60000000000001,0.0,0.01,3
1666958721.72088408,52915167,0.0,1.74,0.0,-0.17,77.60000000000001,77.60000000000001,0.0,0.01,3
1666958721.82093000,53015213,0.0,1.74,0.0,-0.17,77.60000000000001,77.60000000000001,0.0,0.01,3
1666958721.92094207,53115225,0.0,1.73,0.0,-0.17,77.59,77.59,0.0,0.01,3
1666958722.02093506,53215218,0.0,1.73,0.0,-0.17,77.59,77.59,0.0,0.01,3
1666958722.12108588,53315369,0.0,1.74,0.0,-0.17,77.58,77.58,0.0,0.01,3
1666958722.22129107,53415574,0.0,1.74,0.0,-0.17,77.58,77.58,0.0,0.01,3
1666958722.32095003,53515233,0.0,1.73,0.0,-0.17,77.58,77.58,0.0,0.01,3
1666958722.42099190,53615275,0.0,1.73,0.0,-0.17,77.58,77.58,0.0,0.01,3
1666958722.52094603,53715229,0.0,1.73,0.0,-0.17,77.59,77.59,0.0,0.01,3
1666958722.62102699,53815310,0.0,1.73,0.0,-0.17,77.60000000000001,77.60000000000001,0.0,0.01,3
1666958722.72098207,53915265,0.0,1.73,0.0,-0.17,77.60000000000001,77.60000000000001,0.0,0.01,3
1666958722.82087994,54015163,0.0,1.73,0.0,-0.17,77.61,77.61,0.0,0.01,3
1666958722.92089605,54115179,0.0,1.73,0.0,-0.17,77.61,77.61,0.0,0.01,3
1666958723.02099204,54215275,0.0,1.73,0.0,-0.18,77.62,77.62,0.0,0.01,3
1666958723.12108302,54315366,0.0,1.74,0.0,-0.18,77.63,77.63,0.0,0.01,3
1666958723.22121596,54415499,0.0,1.74,0.0,-0.18,77.64,77.64,0.0,0.01,3
1666958723.32089210,54515175,0.0,1.74,0.0,-0.18,77.64,77.64,0.0,0.01,3
1666958723.42099404,54615277,0.0,1.75,0.0,-0.18,77.65,77.65,0.0,0.01,3
1666958723.52091503,54715198,0.0,1.75,0.0,-0.17,77.65,77.65,0.0,0.01,3
1666958723.62109709,54815380,0.0,1.75,0.0,-0.17,77.65,77.65,0.0,0.01,3
1666958723.72093701,54915220,0.0,1.75,0.0,-0.17,77.65,77.65,0.0,0.01,3
1666958723.82096601,55015249,0.0,1.75,0.0,-0.17,77.66,77.66,0.0,0.01,3
1666958723.92095900,55115242,0.0,1.75,0.0,-0.18,77.65,77.66,0.0,0.01,3
1666958724.02097487,55215258,0.0,1.75,0.0,-0.18,77.65,77.65,0.0,0.02,3
1666958724.12099695,55315280,0.0,1.75,0.0,-0.17,77.64,77.65,0.0,0.01,3
1666958724.22123694,55415520,0.0,1.76,0.0,-0.17,77.63,77.64,0.0,0.01,3
1666958724.32093906,55515222,0.0,1.76,0.0,-0.17,77.63,77.63,0.0,0.01,3
1666958724.42092299,55615206,0.0,1.76,0.0,-0.17,77.62,77.62,0.0,0.01,3
1666958724.52089095,55715174,0.0,1.76,0.0,-0.17,77.62,77.62,0.0,0.01,3
1666958724.62100005,55815283,0.0,1.76,0.0,-0.17,77.63,77.63,0.0,0.01,3
1666958724.72093201,55915215,0.0,1.76,0.0,-0.17,77.64,77.64,0.0,0.01,3
1666958724.82113695,56015420,0.0,1.76,0.0,-0.17,77.65,77.65,0.0,0.01,3
1666958724.92088604,56115169,0.0,1.75,0.0,-0.17,77.66,77.66,0.0,0.01,3
1666958725.02089906,56215182,0.0,1.75,0.0,-0.17,77.67,77.67,0.0,0.01,3
1666958725.12103295,56315316,0.0,1.74,0.0,-0.17,77.67,77.67,0.0,0.01,3
1666958725.22132206,56415605,0.0,1.74,0.0,-0.18,77.68,77.68,0.0,0.01,3
1666958725.32093692,56515220,0.0,1.74,0.0,-0.18,77.68,77.68,0.0,0.01,3
1666958725.42094994,56615233,0.0,1.73,0.0,-0.18,77.68,77.68,0.0,0.01,3
1666958725.52097106,56715254,0.0,1.73,0.0,-0.18,77.68,77.68,0.0,0.01,3
1666958725.62099695,56815280,0.0,1.73,0.0,-0.18,77.69,77.69,0.0,0.01,3
1666958725.72097492,56915258,0.0,1.74,0.0,-0.18,77.69,77.69,0.0,0.01,3
1666958725.82095408,57015237,0.0,1.74,0.0,-0.18,77.68,77.68,0.0,0.01,3
1666958725.92086792,57115151,0.0,1.74,0.0,-0.18,77.68,77.68,0.0,0.01,3
1666958726.02094603,57215229,0.0,1.74,0.0,-0.18,77.68,77.68,0.0,0.01,3
1666958726.12094593,57315229,0.0,1.74,0.0,-0.18,77.68,77.68,0.0,0.01,3
1666958726.22123694,57415520,0.0,1.74,0.0,-0.18,77.68,77.68,0.0,0.01,3
1666958726.32094002,57515223,0.0,1.74,0.0,-0.17,77.68,77.68,0.0,0.01,3
1666958726.42101002,57615293,0.0,1.74,0.0,-0.17,77.67,77.68,0.0,0.0,3
1666958726.52092695,57715210,0.0,1.74,0.0,-0.17,77.67,77.67,0.0,0.01,3
1666958726.62115502,57815438,0.0,1.74,0.0,-0.17,77.67,77.67,0.0,0.01,3
1666958726.72100496,57915288,0.0,1.74,0.0,-0.17,77.66,77.66,0.0,0.01,3
1666958726.82101607,58015299,0.0,1.74,0.0,-0.17,77.65,77.65,0.0,0.01,3
1666958726.92096305,58115246,0.0,1.75,0.0,-0.17,77.64,77.65,0.0,0.01,3
1666958727.02094293,58215226,0.0,1.75,0.0,-0.17,77.64,77.64,0.0,0.01,3
1666958727.12098789,58315271,0.0,1.74,0.0,-0.18,77.64,77.64,0.0,0.01,3
1666958727.22131705,58415600,0.0,1.74,0.0,-0.18,77.63,77.63,0.0,0.01,3
1666958727.32097387,58515257,0.0,1.74,0.0,-0.18,77.63,77.63,0.0,0.01,3
1666958727.42099094,58615274,0.0,1.74,0.0,-0.18,77.64,77.64,0.0,0.01,3
1666958727.52099395,58715277,0.0,1.74,0.0,-0.18,77.63,77.64,0.0,0.01,3
1666958727.62105608,58815339,0.0,1.74,0.0,-0.18,77.64,77.64,0.0,0.01,3
1666958727.72091389,58915197,0.0,1.74,0.0,-0.18,77.64,77.64,0.0,0.02,3
1666958727.82093406,59015217,0.0,1.74,0.0,-0.18,77.65,77.65,0.0,0.02,3
1666958727.92090011,59115183,0.0,1.74,0.0,-0.19,77.66,77.66,0.0,0.01,3
1666958728.02092695,59215210,0.0,1.74,0.0,-0.18,77.66,77.66,0.0,0.01,3
1666958728.12094903,59315232,0.0,1.74,0.0,-0.18,77.65,77.65,0.0,0.01,3
1666958728.22129893,59415582,0.0,1.75,0.0,-0.18,77.65,77.65,0.0,0.01,3
1666958728.32091904,59515202,0.0,1.74,0.0,-0.18,77.64,77.65,0.0,0.01,3
1666958728.42108393,59615367,0.0,1.74,0.0,-0.18,77.65,77.65,0.0,0.01,3
1666958728.52094507,59715228,0.0,1.74,0.0,-0.18,77.65,77.65,0.0,0.01,3
1666958728.62108397,59815367,0.0,1.74,0.0,-0.18,77.65,77.65,0.0,0.01,3
1666958728.72091007,59915193,0.0,1.74,0.0,-0.18,77.65,77.65,0.0,0.01,3
1666958728.82094908,60015232,0.0,1.74,0.0,-0.18,77.64,77.64,0.0,0.01,3
1666958728.92091608,60115199,0.0,1.74,0.0,-0.18,77.64,77.64,0.0,0.01,3
1666958729.02099895,60215282,0.0,1.74,0.0,-0.17,77.63,77.64,0.0,0.02,3
1666958729.12099099,60315274,0.0,1.74,0.0,-0.17,77.63,77.63,0.0,0.01,3
1666958729.22121096,60415494,0.0,1.74,0.0,-0.17,77.62,77.62,0.0,0.02,3
1666958729.32095003,60515233,0.0,1.74,0.0,-0.17,77.62,77.62,0.0,0.01,3
1666958729.42110801,60615391,0.0,1.75,0.0,-0.17,77.62,77.62,0.0,0.01,3
1666958729.52089310,60715176,0.0,1.75,0.0,-0.17,77.63,77.63,0.0,0.02,3
1666958729.62102103,60815304,0.0,1.76,0.0,-0.17,77.63,77.64,0.0,0.02,3
1666958729.72089195,60915175,0.0,1.76,0.0,-0.17,77.63,77.63,0.0,0.02,3
1666958729.82094097,61015224,0.0,1.76,0.0,-0.17,77.63,77.63,0.0,0.01,3
1666958729.92094707,61115230,0.0,1.76,0.0,-0.17,77.63,77.63,0.0,0.02,3
1666958730.02094793,61215231,0.0,1.76,0.0,-0.17,77.62,77.62,0.0,0.01,3
1666958730.12097788,61315261,0.0,1.76,0.0,-0.17,77.61,77.61,0.0,0.01,3
1666958730.22135401,61415637,0.0,1.76,0.0,-0.17,77.60000000000001,77.60000000000001,0.0,0.01,3
1666958730.32092690,61515210,0.0,1.76,0.0,-0.17,77.60000000000001,77.60000000000001,0.0,0.01,3
1666958730.42104602,61615329,0.0,1.76,0.0,-0.17,77.59,77.59,0.0,0.01,3
1666958730.52094007,61715223,0.0,1.76,0.0,-0.17,77.59,77.59,0.0,0.01,3
1666958730.62101793,61815301,0.0,1.76,0.0,-0.17,77.59,77.59,0.0,0.01,3
1666958730.72081995,61915103,0.0,1.76,0.0,-0.17,77.59,77.59,0.0,0.01,3
1666958730.82092595,62015209,0.0,1.76,0.0,-0.17,77.59,77.59,0.0,0.01,3
1666958730.92087007,62115153,0.0,1.76,0.0,-0.17,77.59,77.59,0.0,0.01,3
1666958731.02089691,62215180,0.0,1.76,0.0,-0.16,77.59,77.59,0.0,0.01,3
1666958731.12112093,62315404,0.0,1.76,0.0,-0.16,77.59,77.59,0.0,0.01,3
1666958731.22122288,62415506,0.0,1.75,0.0,-0.16,77.60000000000001,77.60000000000001,0.0,0.01,3
1666958731.32093906,62515222,0.0,1.75,0.0,-0.16,77.60000000000001,77.60000000000001,0.0,0.01,3
1666958731.42101502,62615298,0.0,1.75,0.0,-0.15,77.60000000000001,77.60000000000001,0.0,0.01,3
1666958731.52103496,62715318,0.0,1.74,0.0,-0.15,77.60000000000001,77.60000000000001,0.0,0.01,3
1666958731.62105989,62815343,0.0,1.74,0.0,-0.15,77.59,77.59,0.0,0.01,3
1666958731.72092104,62915204,0.0,1.74,0.0,-0.15,77.60000000000001,77.60000000000001,0.0,0.01,3
1666958731.82094193,63015225,0.0,1.74,0.0,-0.15,77.60000000000001,77.61,0.0,0.01,3
1666958731.92092299,63115206,0.0,1.73,0.0,-0.15,77.61,77.61,0.0,0.01,3
1666958732.02099299,63215276,0.0,1.74,0.0,-0.15,77.62,77.62,0.0,0.01,3
1666958732.12099600,63315279,0.0,1.74,0.0,-0.15,77.62,77.62,0.0,0.01,3
1666958732.22118497,63415468,0.0,1.74,0.0,-0.15,77.62,77.62,0.0,0.01,3
1666958732.32098007,63515263,0.0,1.74,0.0,-0.15,77.62,77.62,0.0,0.01,3
1666958732.42096496,63615248,0.0,1.74,0.0,-0.15,77.62,77.62,0.0,0.02,3
1666958732.52088594,63715169,0.0,1.74,0.0,-0.15,77.63,77.63,0.0,0.02,3
1666958732.62111402,63815397,0.0,1.74,0.0,-0.15,77.64,77.64,0.0,0.01,3
1666958732.72081590,63915099,0.0,1.74,0.0,-0.15,77.66,77.66,0.0,0.01,3
1666958732.82089591,64015179,0.0,1.74,0.0,-0.16,77.67,77.67,0.0,0.01,3
1666958732.92103696,64115320,0.0,1.74,0.0,-0.16,77.67,77.68,0.0,0.01,3
1666958733.02094603,64215229,0.0,1.74,0.0,-0.16,77.68,77.68,0.0,0.01,3
1666958733.12097192,64315255,0.0,1.74,0.0,-0.16,77.69,77.69,0.0,0.01,3
1666958733.22133589,64415619,0.0,1.74,0.0,-0.16,77.7,77.7,0.0,0.01,3
1666958733.32096696,64515250,0.0,1.73,0.0,-0.16,77.71000000000001,77.71000000000001,0.0,0.01,3
1666958733.42097211,64615255,0.0,1.73,0.0,-0.16,77.72,77.72,0.0,0.01,3
1666958733.52097106,64715254,0.0,1.73,0.0,-0.16,77.72,77.72,0.0,0.01,3
1666958733.62109303,64815376,0.0,1.73,0.0,-0.16,77.72,77.72,0.0,0.01,3
1666958733.72091603,64915199,0.0,1.73,0.0,-0.16,77.73,77.73,0.0,0.01,3
1666958733.82100606,65015289,0.0,1.73,0.0,-0.16,77.73,77.73,0.0,0.0,3
1666958733.92091393,65115197,0.0,1.73,0.0,-0.16,77.73,77.73,0.0,0.0,3
1666958734.02095103,65215234,0.0,1.73,0.0,-0.16,77.73,77.73,0.0,0.01,3
1666958734.12099791,65315281,0.0,1.73,0.0,-0.16,77.73,77.73,0.0,0.01,3
1666958734.22125793,65415541,0.0,1.73,0.0,-0.15,77.73,77.73,0.0,0.01,3
1666958734.32089305,65515176,0.0,1.74,0.0,-0.15,77.72,77.72,0.0,0.01,3
1666958734.42103505,65615318,0.0,1.74,0.0,-0.15,77.72,77.72,0.0,0.01,3
1666958734.52095509,65715238,0.0,1.74,0.0,-0.15,77.71000000000001,77.71000000000001,0.0,0.01,3
1666958734.62110209,65815385,0.0,1.75,0.0,-0.15,77.71000000000001,77.71000000000001,0.0,0.01,3
1666958734.72097898,65915262,0.0,1.75,0.0,-0.16,77.71000000000001,77.71000000000001,0.0,0.01,3
1666958734.82097387,66015257,0.0,1.74,0.0,-0.16,77.7,77.71000000000001,0.0,0.01,3
1666958734.92096305,66115246,0.0,1.74,0.0,-0.16,77.71000000000001,77.71000000000001,0.0,0.01,3
1666958735.02095890,66215242,0.0,1.75,0.0,-0.16,77.7,77.71000000000001,0.0,0.01,3
1666958735.12097788,66315261,0.0,1.74,0.0,-0.16,77.71000000000001,77.71000000000001,0.0,0.0,3
1666958735.22125697,66415540,0.0,1.74,0.0,-0.16,77.71000000000001,77.71000000000001,0.0,0.0,3
1666958735.32096004,66515243,0.0,1.74,0.0,-0.17,77.71000000000001,77.71000000000001,0.0,0.0,3
1666958735.42102504,66615308,0.0,1.74,0.0,-0.17,77.71000000000001,77.71000000000001,0.0,0.01,3
1666958735.52092910,66715212,0.0,1.74,0.0,-0.17,77.71000000000001,77.71000000000001,0.0,0.01,3
1666958735.62108994,66815373,0.0,1.74,0.0,-0.17,77.71000000000001,77.71000000000001,0.0,0.01,3
1666958735.72097111,66915254,0.0,1.73,0.0,-0.17,77.71000000000001,77.71000000000001,0.0,0.01,3
1666958735.82088804,67015171,0.0,1.73,0.0,-0.17,77.71000000000001,77.71000000000001,0.0,0.01,3
1666958735.92089009,67115173,0.0,1.73,0.0,-0.17,77.71000000000001,77.71000000000001,0.0,0.01,3
1666958736.02091408,67215197,0.0,1.73,0.0,-0.17,77.71000000000001,77.71000000000001,0.0,0.01,3
1666958736.12105107,67315334,0.0,1.73,0.0,-0.17,77.71000000000001,77.72,0.0,0.01,3
1666958736.22129607,67415579,0.0,1.73,0.0,-0.17,77.72,77.72,0.0,0.01,3
1666958736.32090306,67515186,0.0,1.73,0.0,-0.17,77.71000000000001,77.71000000000001,0.0,0.01,3
1666958736.42097497,67615258,0.0,1.73,0.0,-0.17,77.71000000000001,77.71000000000001,0.0,0.01,3
1666958736.52100706,67715290,0.0,1.73,0.0,-0.17,77.71000000000001,77.71000000000001,0.0,0.01,3
1666958736.62107801,67815361,0.0,1.73,0.0,-0.17,77.71000000000001,77.71000000000001,0.0,0.01,3
1666958736.72093606,67915219,0.0,1.74,0.0,-0.18,77.7,77.7,0.0,0.01,3
1666958736.82094693,68015230,0.0,1.74,0.0,-0.18,77.7,77.7,0.0,0.01,3
1666958736.92090106,68115184,0.0,1.74,0.0,-0.18,77.69,77.69,0.0,0.01,3
1666958737.02095008,68215233,0.0,1.74,0.0,-0.18,77.69,77.69,0.0,0.01,3
1666958737.12095499,68315238,0.0,1.74,0.0,-0.18,77.68,77.68,0.0,0.01,3
1666958737.22124410,68415527,0.0,1.74,0.0,-0.18,77.68,77.68,0.0,0.01,3
1666958737.32089210,68515175,0.0,1.74,0.0,-0.18,77.67,77.67,0.0,0.01,3
1666958737.42115498,68615438,0.0,1.74,0.0,-0.18,77.67,77.67,0.0,0.0,3
1666958737.52091503,68715198,0.0,1.74,0.0,-0.19,77.67,77.67,0.0,0.01,3
1666958737.62104988,68815333,0.0,1.74,0.0,-0.19,77.67,77.67,0.0,0.01,3
1666958737.72091603,68915199,0.0,1.74,0.0,-0.19,77.67,77.67,0.0,0.0,3
1666958737.82104897,69015332,0.0,1.74,0.0,-0.19,77.67,77.67,0.0,0.01,3
1666958737.92095900,69115242,0.0,1.75,0.0,-0.19,77.67,77.68,0.0,0.01,3
1666958738.02096605,69215249,0.0,1.75,0.0,-0.19,77.67,77.67,0.0,0.01,3
1666958738.12105703,69315340,0.0,1.75,0.0,-0.19,77.67,77.67,0.0,0.01,3
1666958738.22124195,69415525,0.0,1.75,0.0,-0.19,77.67,77.67,0.0,0.01,3
1666958738.32100987,69515293,0.0,1.75,0.0,-0.19,77.66,77.66,0.0,0.01,3
1666958738.42101502,69615298,0.0,1.75,0.0,-0.19,77.66,77.66,0.0,0.01,3
1666958738.52089000,69715173,0.0,1.75,0.0,-0.2,77.66,77.66,0.0,0.02,3
1666958738.62095809,69815241,0.0,1.75,0.0,-0.2,77.66,77.66,0.0,0.02,3
1666958738.72085309,69915136,0.0,1.75,0.0,-0.2,77.67,77.67,0.0,0.02,3
1666958738.82088804,70015171,0.0,1.75,0.0,-0.2,77.67,77.68,0.0,0.01,3
1666958738.92089200,70115175,0.0,1.75,0.0,-0.2,77.68,77.68,0.0,0.01,3
1666958739.02099490,70215278,0.0,1.75,0.0,-0.2,77.69,77.69,0.0,0.01,3
1666958739.12103796,70315321,0.0,1.76,0.0,-0.2,77.7,77.7,0.0,0.01,3
1666958739.22131896,70415602,0.0,1.76,0.0,-0.2,77.71000000000001,77.71000000000001,0.0,0.01,3
1666958739.32093000,70515213,0.0,1.75,0.0,-0.21,77.72,77.72,0.0,0.01,3
1666958739.42095900,70615242,0.0,1.75,0.0,-0.21,77.73,77.73,0.0,0.01,3
1666958739.52097797,70715261,0.0,1.76,0.0,-0.21,77.73,77.73,0.0,0.01,3
1666958739.62104797,70815331,0.0,1.76,0.0,-0.21,77.73,77.73,0.0,0.01,3
1666958739.72093296,70915216,0.0,1.75,0.0,-0.21,77.73,77.73,0.0,0.01,3
1666958739.82093406,71015217,0.0,1.75,0.0,-0.21,77.73,77.73,0.0,0.01,3
1666958739.92099309,71115276,0.0,1.75,0.0,-0.21,77.73,77.73,0.0,0.01,3
1666958740.02098107,71215264,0.0,1.75,0.0,-0.21,77.72,77.73,0.0,0.01,3
1666958740.12106109,71315344,0.0,1.75,0.0,-0.21,77.72,77.72,0.0,0.01,3
1666958740.22122598,71415509,0.0,1.75,0.0,-0.21,77.72,77.72,0.0,0.01,3
1666958740.32096004,71515243,0.0,1.75,0.0,-0.21,77.72,77.72,0.0,0.01,3
1666958740.42099094,71615274,0.0,1.75,0.0,-0.21,77.72,77.72,0.0,0.01,3
1666958740.52090096,71715184,0.0,1.75,0.0,-0.21,77.72,77.72,0.0,0.01,3
1666958740.62102604,71815309,0.0,1.75,0.0,-0.21,77.72,77.72,0.0,0.01,3
1666958740.72096610,71915249,0.0,1.75,0.0,-0.21,77.73,77.73,0.0,0.01,3
1666958740.82089591,72015179,0.0,1.75,0.0,-0.21,77.73,77.73,0.0,0.01,3
1666958740.92093492,72115218,0.0,1.74,0.0,-0.2,77.73,77.73,0.0,0.01,3
1666958741.02108288,72215366,0.0,1.74,0.0,-0.2,77.73,77.73,0.0,0.01,3
1666958741.12099910,72315282,0.0,1.74,0.0,-0.2,77.73,77.73,0.0,0.01,3
1666958741.22125006,72415533,0.0,1.73,0.0,-0.2,77.73,77.73,0.0,0.01,3
1666958741.32092810,72515211,0.0,1.73,0.0,-0.2,77.72,77.73,0.0,0.01,3
1666958741.42096901,72615252,0.0,1.73,0.0,-0.19,77.72,77.72,0.0,0.01,3
1666958741.52088499,72715168,0.0,1.73,0.0,-0.19,77.72,77.72,0.0,0.01,3
1666958741.62107396,72815357,0.0,1.73,0.0,-0.19,77.71000000000001,77.71000000000001,0.0,0.01,3
1666958741.72081208,72915095,0.0,1.73,0.0,-0.19,77.71000000000001,77.72,0.0,0.01,3
1666958741.82086611,73015149,0.0,1.73,0.0,-0.19,77.71000000000001,77.71000000000001,0.0,0.01,3
1666958741.92108107,73115364,0.0,1.73,0.0,-0.19,77.71000000000001,77.71000000000001,0.0,0.01,3
1666958742.02097893,73215262,0.0,1.73,0.0,-0.19,77.71000000000001,77.71000000000001,0.0,0.01,3
1666958742.12093902,73315222,0.0,1.74,0.0,-0.19,77.71000000000001,77.71000000000001,0.0,0.0,3
1666958742.22128701,73415570,0.0,1.74,0.0,-0.19,77.71000000000001,77.71000000000001,0.0,0.01,3
1666958742.32092905,73515212,0.0,1.74,0.0,-0.19,77.71000000000001,77.71000000000001,0.0,0.01,3
1666958742.42103696,73615320,0.0,1.74,0.0,-0.19,77.7,77.7,0.0,0.01,3
1666958742.52093506,73715218,0.0,1.74,0.0,-0.19,77.7,77.7,0.0,0.02,3
1666958742.62107396,73815357,0.0,1.74,0.0,-0.19,77.69,77.69,0.0,0.01,3
1666958742.72093797,73915221,0.0,1.74,0.0,-0.18,77.68,77.68,0.0,0.01,3
1666958742.82101202,74015295,0.0,1.74,0.0,-0.18,77.68,77.68,0.0,0.01,3
1666958742.92090607,74115189,0.0,1.73,0.0,-0.19,77.67,77.67,0.0,0.01,3
1666958743.02102804,74215311,0.0,1.73,0.0,-0.19,77.67,77.67,0.0,0.01,3
1666958743.12098503,74315268,0.0,1.73,0.0,-0.19,77.67,77.67,0.0,0.01,3
1666958743.22119808,74415481,0.0,1.73,0.0,-0.19,77.67,77.67,0.0,0.01,3
1666958743.32092309,74515206,0.0,1.73,0.0,-0.18,77.67,77.67,0.0,0.01,3
1666958743.42098594,74615269,0.0,1.74,0.0,-0.19,77.68,77.68,0.0,0.01,3
1666958743.52089095,74715174,0.0,1.74,0.0,-0.19,77.68,77.68,0.0,0.01,3
1666958743.62104988,74815333,0.0,1.74,0.0,-0.19,77.68,77.68,0.0,0.01,3
1666958743.72102594,74915309,0.0,1.74,0.0,-0.19,77.68,77.68,0.0,0.01,3
1666958743.82095003,75015233,0.0,1.74,0.0,-0.19,77.69,77.69,0.0,0.01,3
1666958743.92103505,75115318,0.0,1.74,0.0,-0.19,77.68,77.69,0.0,0.01,3
1666958744.02099705,75215280,0.0,1.74,0.0,-0.19,77.69,77.69,0.0,0.01,3
1666958744.12109303,75315376,0.0,1.74,0.0,-0.19,77.69,77.69,0.0,0.01,3
1666958744.22131491,75415598,0.0,1.74,0.0,-0.19,77.69,77.69,0.0,0.02,3
1666958744.32094502,75515228,0.0,1.73,0.0,-0.19,77.68,77.68,0.0,0.01,3
1666958744.42099309,75615276,0.0,1.73,0.0,-0.19,77.68,77.68,0.0,0.01,3
1666958744.52093291,75715216,0.0,1.73,0.0,-0.19,77.69,77.69,0.0,0.01,3
1666958744.62104106,75815324,0.0,1.72,0.0,-0.19,77.69,77.69,0.0,0.01,3
1666958744.72088099,75915164,0.0,1.72,0.0,-0.19,77.7,77.7,0.0,0.01,3
1666958744.82093406,76015217,0.0,1.72,0.0,-0.19,77.69,77.7,0.0,0.01,3
1666958744.92093897,76115222,0.0,1.71,0.0,-0.19,77.7,77.7,0.0,0.01,3
1666958745.02098203,76215265,0.0,1.71,0.0,-0.2,77.7,77.7,0.0,0.01,3
1666958745.12101197,76315295,0.0,1.71,0.0,-0.2,77.7,77.7,0.0,0.01,3
1666958745.22124791,76415531,0.0,1.71,0.0,-0.2,77.7,77.7,0.0,0.01,3
1666958745.32088399,76515167,0.0,1.71,0.0,-0.2,77.7,77.7,0.0,0.01,3
1666958745.42103410,76615317,0.0,1.72,0.0,-0.2,77.7,77.7,0.0,0.01,3
1666958745.52105188,76715335,0.0,1.72,0.0,-0.2,77.7,77.7,0.0,0.01,3
1666958745.62104011,76815323,0.0,1.72,0.0,-0.2,77.7,77.7,0.0,0.01,3
1666958745.72087789,76915161,0.0,1.72,0.0,-0.2,77.71000000000001,77.71000000000001,0.0,0.01,3
1666958745.82100987,77015293,0.0,1.72,0.0,-0.2,77.71000000000001,77.71000000000001,0.0,0.0,3
1666958745.92091799,77115201,0.0,1.72,0.0,-0.2,77.71000000000001,77.71000000000001,0.0,0.01,3
1666958746.02096391,77215247,0.0,1.72,0.0,-0.2,77.71000000000001,77.71000000000001,0.0,0.01,3
1666958746.12099910,77315282,0.0,1.72,0.0,-0.2,77.7,77.7,0.0,0.01,3
1666958746.22129107,77415574,0.0,1.72,0.0,-0.2,77.7,77.7,0.0,0.01,3
1666958746.32086492,77515148,0.0,1.73,0.0,-0.2,77.7,77.7,0.0,0.01,3
1666958746.42106199,77615345,0.0,1.72,0.0,-0.2,77.7,77.7,0.0,0.0,3
1666958746.52089095,77715174,0.0,1.72,0.0,-0.2,77.7,77.7,0.0,0.01,3
1666958746.62100697,77815290,0.0,1.72,0.0,-0.2,77.7,77.7,0.0,0.01,3
1666958746.72088289,77915166,0.0,1.72,0.0,-0.2,77.7,77.7,0.0,0.01,3
1666958746.82093692,78015220,0.0,1.72,0.0,-0.2,77.7,77.7,0.0,0.01,3
1666958746.92092991,78115213,0.0,1.72,0.0,-0.2,77.7,77.7,0.0,0.01,3
1666958747.02102900,78215312,0.0,1.72,0.0,-0.2,77.69,77.69,0.0,0.01,3
1666958747.12106299,78315346,0.0,1.72,0.0,-0.2,77.69,77.7,0.0,0.01,3
1666958747.22124696,78415530,0.0,1.72,0.0,-0.2,77.69,77.69,0.0,0.01,3
1666958747.32098389,78515267,0.0,1.72,0.0,-0.2,77.69,77.69,0.0,0.01,3
1666958747.42096496,78615248,0.0,1.72,0.0,-0.2,77.69,77.69,0.0,0.01,3
1666958747.52094889,78715232,0.0,1.71,0.0,-0.2,77.7,77.7,0.0,0.01,3
1666958747.62100291,78815286,0.0,1.72,0.0,-0.2,77.7,77.7,0.0,0.01,3
1666958747.72087097,78915154,0.0,1.72,0.0,-0.2,77.7,77.7,0.0,0.01,3
1666958747.82092690,79015210,0.0,1.72,0.0,-0.2,77.69,77.69,0.0,0.02,3
1666958747.92097902,79115262,0.0,1.72,0.0,-0.2,77.69,77.69,0.0,0.02,3
1666958748.02095509,79215238,0.0,1.72,0.0,-0.19,77.69,77.69,0.0,0.01,3
1666958748.12104297,79315326,0.0,1.72,0.0,-0.19,77.69,77.69,0.0,0.01,3
1666958748.22131491,79415598,0.0,1.72,0.0,-0.19,77.69,77.69,0.0,0.01,3
1666958748.32092309,79515206,0.0,1.72,0.0,-0.19,77.69,77.69,0.0,0.01,3
1666958748.42091703,79615200,0.0,1.72,0.0,-0.19,77.7,77.7,0.0,0.01,3
1666958748.52104402,79715327,0.0,1.72,0.0,-0.19,77.69,77.7,0.0,0.01,3
1666958748.62104893,79815332,0.0,1.72,0.0,-0.19,77.7,77.7,0.0,0.01,3
1666958748.72092509,79915208,0.0,1.72,0.0,-0.19,77.7,77.7,0.0,0.01,3
1666958748.82095194,80015235,0.0,1.72,0.0,-0.19,77.69,77.7,0.0,0.01,3
1666958748.92092299,80115206,0.0,1.71,0.0,-0.19,77.69,77.69,0.0,0.01,3
1666958749.02097988,80215263,0.0,1.71,0.0,-0.19,77.69,77.69,0.0,0.01,3
1666958749.12104297,80315326,0.0,1.71,0.0,-0.18,77.69,77.69,0.0,0.01,3
1666958749.22128797,80415571,0.0,1.7,0.0,-0.18,77.69,77.69,0.0,0.01,3
1666958749.32088804,80515171,0.0,1.7,0.0,-0.18,77.69,77.69,0.0,0.01,3
1666958749.42096496,80615248,0.0,1.71,0.0,-0.18,77.69,77.69,0.0,0.01,3
1666958749.52093410,80715217,0.0,1.71,0.0,-0.18,77.69,77.69,0.0,0.01,3
1666958749.62107491,80815358,0.0,1.71,0.0,-0.18,77.69,77.69,0.0,0.01,3
1666958749.72098303,80915266,0.0,1.71,0.0,-0.18,77.69,77.69,0.0,0.01,3
1666958749.82089901,81015182,0.0,1.71,0.0,-0.18,77.69,77.69,0.0,0.01,3
1666958749.92089009,81115173,0.0,1.71,0.0,-0.18,77.69,77.69,0.0,0.01,3
1666958750.02109790,81215381,0.0,1.71,0.0,-0.18,77.69,77.69,0.0,0.01,3
1666958750.12104607,81315329,0.0,1.71,0.0,-0.17,77.68,77.69,0.0,0.01,3
1666958750.22126198,81415545,0.0,1.71,0.0,-0.17,77.68,77.68,0.0,0.01,3
1666958750.32093596,81515219,0.0,1.71,0.0,-0.17,77.68,77.68,0.0,0.0,3
1666958750.42107701,81615360,0.0,1.72,0.0,-0.17,77.68,77.68,0.0,0.01,3
1666958750.52095103,81715234,0.0,1.72,0.0,-0.17,77.68,77.68,0.0,0.01,3
1666958750.62101388,81815297,0.0,1.72,0.0,-0.17,77.68,77.68,0.0,0.01,3
1666958750.72094202,81915225,0.0,1.72,0.0,-0.17,77.68,77.68,0.0,0.0,3
1666958750.82094693,82015230,0.0,1.73,0.0,-0.17,77.69,77.69,0.0,0.0,3
1666958750.92100096,82115284,0.0,1.73,0.0,-0.18,77.69,77.69,0.0,0.0,3
1666958751.02092910,82215212,0.0,1.73,0.0,-0.18,77.69,77.69,0.0,0.01,3
1666958751.12096596,82315249,0.0,1.72,0.0,-0.17,77.69,77.69,0.0,0.01,3
1666958751.22118306,82415466,0.0,1.72,0.0,-0.17,77.69,77.69,0.0,0.01,3
1666958751.32090306,82515186,0.0,1.72,0.0,-0.17,77.69,77.69,0.0,0.0,3
1666958751.42092204,82615205,0.0,1.72,0.0,-0.17,77.68,77.68,0.0,0.01,3
1666958751.52092290,82715206,0.0,1.72,0.0,-0.17,77.68,77.68,0.0,0.01,3
1666958751.62104988,82815333,0.0,1.72,0.0,-0.17,77.68,77.68,0.0,0.01,3
1666958751.72099209,82915275,0.0,1.72,0.0,-0.17,77.68,77.68,0.0,0.01,3
1666958751.82105494,83015338,0.0,1.72,0.0,-0.17,77.68,77.68,0.0,0.01,3
1666958751.92096400,83115247,0.0,1.72,0.0,-0.17,77.67,77.67,0.0,0.01,3
1666958752.02097893,83215262,0.0,1.71,0.0,-0.17,77.67,77.67,0.0,0.0,3
1666958752.12106395,83315347,0.0,1.71,0.0,-0.17,77.66,77.67,0.0,0.01,3
1666958752.22128606,83415569,0.0,1.72,0.0,-0.17,77.66,77.66,0.0,0.01,3
1666958752.32091594,83515199,0.0,1.72,0.0,-0.17,77.65,77.65,0.0,0.01,3
1666958752.42099595,83615279,0.0,1.72,0.0,-0.17,77.64,77.65,0.0,0.01,3
1666958752.52091002,83715193,0.0,1.72,0.0,-0.17,77.64,77.64,0.0,0.01,3
1666958752.62104988,83815333,0.0,1.72,0.0,-0.18,77.64,77.64,0.0,0.01,3
1666958752.72096992,83915253,0.0,1.72,0.0,-0.18,77.64,77.64,0.0,0.01,3
1666958752.82087398,84015157,0.0,1.72,0.0,-0.18,77.65,77.65,0.0,0.01,3
1666958752.92093801,84115221,0.0,1.72,0.0,-0.18,77.65,77.65,0.0,0.01,3
1666958753.02092099,84215204,0.0,1.72,0.0,-0.17,77.66,77.66,0.0,0.01,3
1666958753.12095404,84315237,0.0,1.71,0.0,-0.17,77.67,77.67,0.0,0.01,3
1666958753.22128606,84415569,0.0,1.71,0.0,-0.17,77.67,77.67,0.0,0.01,3
1666958753.32092905,84515212,0.0,1.71,0.0,-0.17,77.67,77.67,0.0,0.01,3
1666958753.42101598,84615299,0.0,1.71,0.0,-0.17,77.67,77.67,0.0,0.0,3
1666958753.52091002,84715193,0.0,1.71,0.0,-0.17,77.67,77.67,0.0,0.0,3
1666958753.62110305,84815386,0.0,1.71,0.0,-0.16,77.67,77.67,0.0,0.0,3
1666958753.72091508,84915198,0.0,1.71,0.0,-0.17,77.67,77.67,0.0,0.0,3
1666958753.82089996,85015183,0.0,1.71,0.0,-0.16,77.66,77.66,0.0,0.0,3
1666958753.92092609,85115209,0.0,1.71,0.0,-0.16,77.66,77.66,0.0,0.0,3
1666958754.02097201,85215255,0.0,1.71,0.0,-0.16,77.66,77.66,0.0,0.0,3
1666958754.12101007,85315293,0.0,1.7,0.0,-0.16,77.66,77.66,0.0,0.0,3
1666958754.22124600,85415529,0.0,1.7,0.0,-0.16,77.66,77.66,0.0,0.0,3
1666958754.32087588,85515159,0.0,1.7,0.0,-0.16,77.65,77.65,0.0,0.01,3
1666958754.42104506,85615328,0.0,1.7,0.0,-0.15,77.65,77.65,0.0,0.01,3
1666958754.52103209,85715315,0.0,1.69,0.0,-0.15,77.64,77.64,0.0,0.01,3
1666958754.62117410,85815457,0.0,1.69,0.0,-0.15,77.64,77.64,0.0,0.01,3
1666958754.72090101,85915184,0.0,1.69,0.0,-0.15,77.63,77.63,0.0,0.01,3
1666958754.82104111,86015324,0.0,1.69,0.0,-0.15,77.63,77.63,0.0,0.0,3
1666958754.92091703,86115200,0.0,1.69,0.0,-0.15,77.63,77.63,0.0,0.01,3
1666958755.02093196,86215215,0.0,1.69,0.0,-0.15,77.62,77.63,0.0,0.01,3
1666958755.12100697,86315290,0.0,1.69,0.0,-0.14,77.62,77.62,0.0,0.01,3
1666958755.22125101,86415534,0.0,1.68,0.0,-0.14,77.61,77.61,0.0,0.01,3
1666958755.32093692,86515220,0.0,1.68,0.0,-0.14,77.61,77.61,0.0,0.01,3
1666958755.42107391,86615357,0.0,1.68,0.0,-0.14,77.60000000000001,77.60000000000001,0.0,0.01,3
1666958755.52095103,86715234,0.0,1.68,0.0,-0.14,77.60000000000001,77.60000000000001,0.0,0.01,3
1666958755.62100601,86815289,0.0,1.68,0.0,-0.14,77.60000000000001,77.60000000000001,0.0,0.0,3
1666958755.72088408,86915167,0.0,1.69,0.0,-0.14,77.59,77.59,0.0,0.0,3
1666958755.82091403,87015197,0.0,1.69,0.0,-0.14,77.59,77.59,0.0,0.0,3
1666958755.92086601,87115149,0.0,1.69,0.0,-0.14,77.59,77.59,0.0,0.0,3
1666958756.02086902,87215152,0.0,1.69,0.0,-0.14,77.59,77.59,0.0,0.0,3
1666958756.12095499,87315238,0.0,1.69,0.0,-0.14,77.59,77.59,0.0,0.0,3
1666958756.22125793,87415541,0.0,1.69,0.0,-0.14,77.59,77.59,0.0,0.0,3
1666958756.32105303,87515336,0.0,1.69,0.0,-0.14,77.59,77.59,0.0,0.01,3
1666958756.42101407,87615297,0.0,1.68,0.0,-0.15,77.58,77.58,0.0,0.01,3
1666958756.52101088,87715294,0.0,1.68,0.0,-0.15,77.58,77.58,0.0,0.01,3
1666958756.62107491,87815358,0.0,1.68,0.0,-0.15,77.57000000000001,77.57000000000001,0.0,0.01,3
1666958756.72094297,87915226,0.0,1.68,0.0,-0.15,77.57000000000001,77.57000000000001,0.0,0.01,3
1666958756.82089496,88015178,0.0,1.68,0.0,-0.15,77.57000000000001,77.57000000000001,0.0,0.02,3
1666958756.92092109,88115204,0.0,1.68,0.0,-0.15,77.57000000000001,77.58,0.0,0.01,3
1666958757.02095103,88215234,0.0,1.69,0.0,-0.15,77.58,77.58,0.0,0.01,3
1666958757.12098908,88315272,0.0,1.68,0.0,-0.16,77.59,77.59,0.0,0.01,3
1666958757.22133207,88415615,0.0,1.68,0.0,-0.16,77.59,77.59,0.0,0.01,3
1666958757.32089305,88515176,0.0,1.69,0.0,-0.16,77.59,77.59,0.0,0.01,3
1666958757.42098403,88615267,0.0,1.69,0.0,-0.16,77.60000000000001,77.60000000000001,0.0,0.01,3
1666958757.52098107,88715264,0.0,1.69,0.0,-0.16,77.60000000000001,77.60000000000001,0.0,0.01,3
1666958757.62104487,88815328,0.0,1.69,0.0,-0.16,77.60000000000001,77.60000000000001,0.0,0.01,3
1666958757.72089505,88915178,0.0,1.7,0.0,-0.16,77.60000000000001,77.60000000000001,0.0,0.01,3
1666958757.82100010,89015283,0.0,1.7,0.0,-0.16,77.60000000000001,77.60000000000001,0.0,0.01,3
1666958757.92092800,89115211,0.0,1.7,0.0,-0.16,77.60000000000001,77.60000000000001,0.0,0.01,3
1666958758.02094889,89215232,0.0,1.69,0.0,-0.16,77.60000000000001,77.60000000000001,0.0,0.02,3
1666958758.12109208,89315375,0.0,1.69,0.0,-0.16,77.60000000000001,77.60000000000001,0.0,0.02,3
1666958758.22125196,89415535,0.0,1.69,0.0,-0.16,77.60000000000001,77.60000000000001,0.0,0.02,3
1666958758.32094908,89515232,0.0,1.69,0.0,-0.16,77.61,77.61,0.0,0.02,3
1666958758.42104387,89615327,0.0,1.69,0.0,-0.16,77.61,77.61,0.0,0.02,3
1666958758.52095294,89715236,0.0,1.69,0.0,-0.16,77.61,77.61,0.0,0.02,3
1666958758.62100506,89815288,0.0,1.69,0.0,-0.16,77.61,77.61,0.0,0.01,3
1666958758.72095990,89915243,0.0,1.69,0.0,-0.16,77.61,77.61,0.0,0.01,3
1666958758.82090211,90015185,0.0,1.69,0.0,-0.16,77.60000000000001,77.61,0.0,0.02,3
1666958758.92091799,90115201,0.0,1.69,0.0,-0.16,77.60000000000001,77.60000000000001,0.0,0.02,3
1666958759.02101207,90215295,0.0,1.69,0.0,-0.16,77.60000000000001,77.60000000000001,0.0,0.01,3
1666958759.12100005,90315283,0.0,1.69,0.0,-0.16,77.61,77.61,0.0,0.01,3
1666958759.22122693,90415510,0.0,1.69,0.0,-0.16,77.61,77.61,0.0,0.01,3
1666958759.32087398,90515157,0.0,1.69,0.0,-0.16,77.62,77.62,0.0,0.01,3
1666958759.42104197,90615325,0.0,1.69,0.0,-0.17,77.62,77.62,0.0,0.01,3
1666958759.52094293,90715226,0.0,1.69,0.0,-0.17,77.63,77.63,0.0,0.01,3
1666958759.62104607,90815329,0.0,1.69,0.0,-0.17,77.63,77.63,0.0,0.01,3
1666958759.72094798,90915231,0.0,1.69,0.0,-0.17,77.63,77.63,0.0,0.01,3
1666958759.82095599,91015239,0.0,1.69,0.0,-0.17,77.63,77.63,0.0,0.01,3
1666958759.92099690,91115280,0.0,1.69,0.0,-0.18,77.63,77.63,0.0,0.01,3
1666958760.02095509,91215238,0.0,1.69,0.0,-0.18,77.63,77.63,0.0,0.0,3
1666958760.12101507,91315298,0.0,1.69,0.0,-0.18,77.62,77.62,0.0,0.0,3
1666958760.22124791,91415531,0.0,1.69,0.0,-0.18,77.62,77.62,0.0,0.0,3
1666958760.32086205,91515145,0.0,1.7,0.0,-0.18,77.62,77.62,0.0,0.0,3
1666958760.42102599,91615309,0.0,1.7,0.0,-0.18,77.62,77.62,0.0,0.0,3
1666958760.52095103,91715234,0.0,1.71,0.0,-0.19,77.62,77.62,0.0,0.0,3
1666958760.62100506,91815288,0.0,1.71,0.0,-0.19,77.62,77.62,0.0,0.01,3
1666958760.72090006,91915183,0.0,1.71,0.0,-0.19,77.62,77.62,0.0,0.0,3
1666958760.82099009,92015273,0.0,1.72,0.0,-0.19,77.61,77.61,0.0,0.01,3
1666958760.92093205,92115215,0.0,1.72,0.0,-0.19,77.61,77.61,0.0,0.01,3
1666958761.02099395,92215277,0.0,1.72,0.0,-0.19,77.60000000000001,77.60000000000001,0.0,0.0,3
1666958761.12106109,92315344,0.0,1.72,0.0,-0.19,77.60000000000001,77.60000000000001,0.0,0.01,3
1666958761.22123790,92415521,0.0,1.72,0.0,-0.19,77.60000000000001,77.60000000000001,0.0,0.01,3
1666958761.32091594,92515199,0.0,1.72,0.0,-0.19,77.60000000000001,77.60000000000001,0.0,0.01,3
1666958761.42103696,92615320,0.0,1.72,0.0,-0.19,77.60000000000001,77.60000000000001,0.0,0.01,3
1666958761.52090096,92715184,0.0,1.72,0.0,-0.19,77.61,77.61,0.0,0.01,3
1666958761.62103605,92815319,0.0,1.72,0.0,-0.19,77.61,77.61,0.0,0.01,3
1666958761.72097206,92915255,0.0,1.71,0.0,-0.19,77.61,77.61,0.0,0.01,3
1666958761.82087302,93015156,0.0,1.71,0.0,-0.19,77.61,77.61,0.0,0.01,3
1666958761.92088294,93115166,0.0,1.71,0.0,-0.19,77.62,77.62,0.0,0.01,3
1666958762.02085900,93215142,0.0,1.71,0.0,-0.19,77.62,77.62,0.0,0.01,3
